{
    "TTR:ABGAB-1": {
        "name": "Abbaye Gatines",
        "lat": "47.4316486",
        "lon": "0.68646117"
    },
    "TTR:ABGAB-1A": {
        "name": "Abbaye Gatines",
        "lat": "47.43309693",
        "lon": "0.6870793"
    },
    "TTR:ABGAB-2": {
        "name": "Abbaye Gatines",
        "lat": "47.43229194",
        "lon": "0.68614955"
    },
    "TTR:ABGAB-2A": {
        "name": "Abbaye Gatines",
        "lat": "47.43284184",
        "lon": "0.68622534"
    },
    "TTR:AC-ABGAB-1": {
        "name": "Abbaye Gatines",
        "lat": "47.4316486",
        "lon": "0.68646117"
    },
    "TTR:AC-ACACB-1": {
        "name": "Acacias",
        "lat": "47.34251704",
        "lon": "0.61630639"
    },
    "TTR:ACACB-1": {
        "name": "Acacias",
        "lat": "47.34251704",
        "lon": "0.61630639"
    },
    "TTR:ACACB-1A": {
        "name": "Acacias",
        "lat": "47.34252432",
        "lon": "0.61679593"
    },
    "TTR:ACACB-2": {
        "name": "Acacias",
        "lat": "47.34193",
        "lon": "0.61704"
    },
    "TTR:AC-ADLUB-1A": {
        "name": "Arche du Lude",
        "lat": "47.34706004",
        "lon": "0.6510691"
    },
    "TTR:AC-AEROB-1": {
        "name": "A\u00c3\u00a9rogare",
        "lat": "47.42796607",
        "lon": "0.70530877"
    },
    "TTR:AC-AFORB-1": {
        "name": "CFA Aforproba",
        "lat": "47.39670843",
        "lon": "0.73737615"
    },
    "TTR:AC-AGCAB-1": {
        "name": "Agrocampus",
        "lat": "47.400038",
        "lon": "0.63585212"
    },
    "TTR:AC-AHOTB-1": {
        "name": "CHU Trousseau",
        "lat": "47.347817",
        "lon": "0.712418"
    },
    "TTR:AC-AIGHB-1": {
        "name": "Aitre Gauthiers",
        "lat": "47.41260147",
        "lon": "0.83994863"
    },
    "TTR:AC-AIGRB-1": {
        "name": "L'Aigrefin",
        "lat": "47.32414659",
        "lon": "0.59186193"
    },
    "TTR:AC-AIMEB-1": {
        "name": "Aim\u00c3\u00a9e",
        "lat": "47.35974393",
        "lon": "0.69657577"
    },
    "TTR:AC-AJONB-1": {
        "name": "Ajoncs",
        "lat": "47.352631",
        "lon": "0.63276829"
    },
    "TTR:AC-ALAEB-1": {
        "name": "Ali\u00c3\u00a9nor",
        "lat": "47.38950301",
        "lon": "0.78234479"
    },
    "TTR:AC-ALLEB-1": {
        "name": "Allende",
        "lat": "47.408421",
        "lon": "0.650018"
    },
    "TTR:AC-ALOUB-1": {
        "name": "Alouette",
        "lat": "47.35956935",
        "lon": "0.69822302"
    },
    "TTR:AC-ALSAB-1": {
        "name": "Alsace",
        "lat": "47.36452284",
        "lon": "0.73583777"
    },
    "TTR:AC-AMPEB-1": {
        "name": "Amp\u00c3\u00a8re",
        "lat": "47.42331841",
        "lon": "0.66957777"
    },
    "TTR:AC-ANDBB-1": {
        "name": "Anne de Bretagne",
        "lat": "47.38666265",
        "lon": "0.76920653"
    },
    "TTR:AC-ANDFB-1": {
        "name": "Anne de France",
        "lat": "47.39793106",
        "lon": "0.7775146"
    },
    "TTR:AC-ANGUB-1": {
        "name": "Anguille",
        "lat": "47.3883949",
        "lon": "0.7269739"
    },
    "TTR:AC-APEIB-1": {
        "name": "ADAPEI de l'Epan",
        "lat": "47.364353",
        "lon": "0.645134"
    },
    "TTR:AC-APOLB-1": {
        "name": "Apollinaire",
        "lat": "47.35861352",
        "lon": "0.73986802"
    },
    "TTR:AC-ARAGB-1": {
        "name": "Arago",
        "lat": "47.38777828",
        "lon": "0.67634525"
    },
    "TTR:AC-AROEB-1": {
        "name": "L'Arche d'O\u00c3\u00a9",
        "lat": "47.43849458",
        "lon": "0.69908554"
    },
    "TTR:AC-ARPEB-2": {
        "name": "Onze Arpents",
        "lat": "47.36097255",
        "lon": "0.75045664"
    },
    "TTR:AC-ARSOB-1": {
        "name": "Arsonval",
        "lat": "47.35577476",
        "lon": "0.70155683"
    },
    "TTR:AC-ARTIB-1": {
        "name": "Artisans",
        "lat": "47.44773846",
        "lon": "0.65789833"
    },
    "TTR:AC-ASTRB-1": {
        "name": "Astronautes",
        "lat": "47.42059707",
        "lon": "0.70399652"
    },
    "TTR:AC-ATDUB-1": {
        "name": "Atlantes Duclos",
        "lat": "47.37817551",
        "lon": "0.71546711"
    },
    "TTR:AC-ATELB-1": {
        "name": "Ateliers",
        "lat": "47.38782663",
        "lon": "0.71720079"
    },
    "TTR:AC-ATLEB-1": {
        "name": "Atlantes",
        "lat": "47.37973968",
        "lon": "0.71858538"
    },
    "TTR:AC-AUBEB-1": {
        "name": "Aub\u00c3\u00a9pines",
        "lat": "47.35597773",
        "lon": "0.63458133"
    },
    "TTR:AC-AUBIB-1": {
        "name": "Aubri\u00c3\u00a8re",
        "lat": "47.43871328",
        "lon": "0.63195254"
    },
    "TTR:AC-AUBRB-1": {
        "name": "Aubraye",
        "lat": "47.32762282",
        "lon": "0.63307643"
    },
    "TTR:AC-AUDEB-2": {
        "name": "Audenet",
        "lat": "47.38868895",
        "lon": "0.71004707"
    },
    "TTR:AC-AUDVB-1": {
        "name": "Audeverdi\u00c3\u00a8re",
        "lat": "47.33966815",
        "lon": "0.57118229"
    },
    "TTR:AC-AUGEB-1": {
        "name": "Augereau",
        "lat": "47.42388548",
        "lon": "0.67397465"
    },
    "TTR:AC-AUVEB-2": {
        "name": "Auvergne",
        "lat": "47.360039",
        "lon": "0.675315"
    },
    "TTR:AC-AVIRB-1": {
        "name": "Aviron",
        "lat": "47.37448646",
        "lon": "0.72575109"
    },
    "TTR:AC-AZLRB-1": {
        "name": "Azay Le Rideau",
        "lat": "47.34650602",
        "lon": "0.67995852"
    },
    "TTR:AC-BACAB-1": {
        "name": "Bad Camberg",
        "lat": "47.33900421",
        "lon": "0.70858241"
    },
    "TTR:AC-BACEB-1": {
        "name": "Les Bas Chemins",
        "lat": "47.35935777",
        "lon": "0.52715177"
    },
    "TTR:AC-BAGAB-1": {
        "name": "Ballan Gare",
        "lat": "47.33689436",
        "lon": "0.61816846"
    },
    "TTR:AC-BAGTB-1": {
        "name": "Bagatelle",
        "lat": "47.44603035",
        "lon": "0.66109539"
    },
    "TTR:AC-BAILB-1": {
        "name": "Baillardi\u00c3\u00a8re",
        "lat": "47.36906983",
        "lon": "0.55578709"
    },
    "TTR:AC-BALZB-1": {
        "name": "Balzac",
        "lat": "47.38811445",
        "lon": "0.72686313"
    },
    "TTR:AC-BARBB-1": {
        "name": "Barberonne",
        "lat": "47.39430482",
        "lon": "0.65108676"
    },
    "TTR:AC-BARIB-1": {
        "name": "Basses Rivi\u00c3\u00a8res",
        "lat": "47.40771997",
        "lon": "0.74974216"
    },
    "TTR:AC-BARNB-1": {
        "name": "Barbini\u00c3\u00a8re",
        "lat": "47.39036449",
        "lon": "0.54398663"
    },
    "TTR:AC-BAUDB-1": {
        "name": "Baudot",
        "lat": "47.34465156",
        "lon": "0.70200335"
    },
    "TTR:AC-BCHIB-1": {
        "name": "Bd de Chinon",
        "lat": "47.35478095",
        "lon": "0.6961854"
    },
    "TTR:AC-BEAJB-1": {
        "name": "Beaujardin",
        "lat": "47.37642805",
        "lon": "0.70763932"
    },
    "TTR:AC-BEARB-1": {
        "name": "Beauregard",
        "lat": "47.40402641",
        "lon": "0.72724424"
    },
    "TTR:AC-BEAUB-1": {
        "name": "Beaulieu",
        "lat": "47.35803388",
        "lon": "0.6613947"
    },
    "TTR:AC-BEAVB-1": {
        "name": "Beauverger",
        "lat": "47.41520315",
        "lon": "0.68842814"
    },
    "TTR:AC-BECHB-1": {
        "name": "Bechellerie",
        "lat": "47.41484188",
        "lon": "0.65766152"
    },
    "TTR:AC-BEETB-1": {
        "name": "Beethoven",
        "lat": "47.36386119",
        "lon": "0.70205067"
    },
    "TTR:AC-BEFFB-1": {
        "name": "Beffroi",
        "lat": "47.42257246",
        "lon": "0.68280483"
    },
    "TTR:AC-BEGUB-1A": {
        "name": "B\u00c3\u00a9guine",
        "lat": "47.35291067",
        "lon": "0.67234566"
    },
    "TTR:AC-BEISB-1": {
        "name": "Belle Isle",
        "lat": "47.40885058",
        "lon": "0.70808029"
    },
    "TTR:AC-BEJAB-1": {
        "name": "B\u00c3\u00a9jauderie",
        "lat": "47.3565522",
        "lon": "0.69166898"
    },
    "TTR:AC-BELAB-1": {
        "name": "Bel Air",
        "lat": "47.43802599",
        "lon": "0.646442"
    },
    "TTR:AC-BERAB-1": {
        "name": "B\u00c3\u00a9ranger",
        "lat": "47.38937828",
        "lon": "0.68378087"
    },
    "TTR:AC-BERCB-1": {
        "name": "Berchotti\u00c3\u00a8re",
        "lat": "47.33410591",
        "lon": "0.70767296"
    },
    "TTR:AC-BERGB-1": {
        "name": "Bergeonnerie",
        "lat": "47.36120077",
        "lon": "0.69462423"
    },
    "TTR:AC-BERNB-1": {
        "name": "Bernard",
        "lat": "47.34577163",
        "lon": "0.68396585"
    },
    "TTR:AC-BERSB-1": {
        "name": "Bergson",
        "lat": "47.41248881",
        "lon": "0.66727872"
    },
    "TTR:AC-BERTB-1": {
        "name": "Berthelot",
        "lat": "47.34831294",
        "lon": "0.65988605"
    },
    "TTR:AC-BIALB-1": {
        "name": "Bialy",
        "lat": "47.38173962",
        "lon": "0.65320577"
    },
    "TTR:AC-BILLB-1": {
        "name": "Billonni\u00c3\u00a8re",
        "lat": "47.434829",
        "lon": "0.62967671"
    },
    "TTR:AC-BLANB-2": {
        "name": "Blanqui",
        "lat": "47.397003",
        "lon": "0.698995"
    },
    "TTR:AC-BLOBB-1": {
        "name": "Blotterie",
        "lat": "47.33773698",
        "lon": "0.6460161"
    },
    "TTR:AC-BLOTB-1": {
        "name": "Blot",
        "lat": "47.40926",
        "lon": "0.660846"
    },
    "TTR:AC-BOAUB-1": {
        "name": "Bois Aubry",
        "lat": "47.4314854",
        "lon": "0.6788158"
    },
    "TTR:AC-BOCAB-1A": {
        "name": "Bocage",
        "lat": "47.40804386",
        "lon": "0.67788786"
    },
    "TTR:AC-BOCHB-1": {
        "name": "Bois de Chambray",
        "lat": "47.33933846",
        "lon": "0.71828743"
    },
    "TTR:AC-BOCOB-1": {
        "name": "Bois Cormier",
        "lat": "47.3429715",
        "lon": "0.71751548"
    },
    "TTR:AC-BODMB-2": {
        "name": "Bourg de Mettray",
        "lat": "47.4532377",
        "lon": "0.64999189"
    },
    "TTR:AC-BODPB-1": {
        "name": "Bois de Plante",
        "lat": "47.38384433",
        "lon": "0.76175187"
    },
    "TTR:AC-BOFUB-1": {
        "name": "Boire Futembre",
        "lat": "47.35542521",
        "lon": "0.51336911"
    },
    "TTR:AC-BOGIB-1": {
        "name": "Bois Gibert",
        "lat": "47.32755142",
        "lon": "0.61611351"
    },
    "TTR:AC-BOHEB-1": {
        "name": "Bois H\u00c3\u00a9ry",
        "lat": "47.3278413",
        "lon": "0.64365618"
    },
    "TTR:AC-BOILB-1": {
        "name": "Boileau",
        "lat": "47.39512205",
        "lon": "0.71519059"
    },
    "TTR:AC-BOISB-1": {
        "name": "Boisdenier",
        "lat": "47.38372071",
        "lon": "0.69146723"
    },
    "TTR:AC-BOMBB-1": {
        "name": "Bombard",
        "lat": "47.34194154",
        "lon": "0.68227096"
    },
    "TTR:AC-BONAB-1": {
        "name": "Bonamy",
        "lat": "47.35325924",
        "lon": "0.70309022"
    },
    "TTR:AC-BONNB-1": {
        "name": "La Bonneti\u00c3\u00a8re",
        "lat": "47.34494662",
        "lon": "0.62177471"
    },
    "TTR:AC-BORDB-1A": {
        "name": "Bordiers",
        "lat": "47.40968314",
        "lon": "0.68052734"
    },
    "TTR:AC-BOUAB-1": {
        "name": "Boutard",
        "lat": "47.391236",
        "lon": "0.673681"
    },
    "TTR:AC-BOULB-1": {
        "name": "Bouleaux",
        "lat": "47.3917761",
        "lon": "0.71975719"
    },
    "TTR:AC-BOURB-1": {
        "name": "Bourgeois",
        "lat": "47.38668921",
        "lon": "0.6526654"
    },
    "TTR:AC-BOUTB-1": {
        "name": "Boutteville",
        "lat": "47.36139675",
        "lon": "0.70848205"
    },
    "TTR:AC-BOYEB-1A": {
        "name": "Boyer",
        "lat": "47.39383013",
        "lon": "0.67299023"
    },
    "TTR:AC-BRANB-1": {
        "name": "Branchoire",
        "lat": "47.34764197",
        "lon": "0.72660074"
    },
    "TTR:AC-BRASB-1": {
        "name": "Brassens",
        "lat": "47.43373334",
        "lon": "0.70022627"
    },
    "TTR:AC-BRAUB-1": {
        "name": "Briaudi\u00c3\u00a8re",
        "lat": "47.32767839",
        "lon": "0.60353762"
    },
    "TTR:AC-BREOB-1": {
        "name": "Bretonneau",
        "lat": "47.38703696",
        "lon": "0.66734646"
    },
    "TTR:AC-BRIAB-1": {
        "name": "Briand",
        "lat": "47.42170602",
        "lon": "0.84272867"
    },
    "TTR:AC-BRUEB-1": {
        "name": "Bru\u00c3\u00a8re",
        "lat": "47.35090963",
        "lon": "0.67835235"
    },
    "TTR:AC-BUDJB-2": {
        "name": "Bulle d'O Jou\u00c3\u00a9",
        "lat": "47.34307247",
        "lon": "0.65527201"
    },
    "TTR:AC-BUDO-1T": {
        "name": "Bulle D'o",
        "lat": "47.34204948",
        "lon": "0.66041365"
    },
    "TTR:AC-BUGEB-1": {
        "name": "Bugeaud",
        "lat": "47.35118813",
        "lon": "0.6695662"
    },
    "TTR:AC-BUISB-1": {
        "name": "Buisson",
        "lat": "47.38712054",
        "lon": "0.65510268"
    },
    "TTR:AC-CACHB-1": {
        "name": "Cachin",
        "lat": "47.39747",
        "lon": "0.74628402"
    },
    "TTR:AC-CADRB-1": {
        "name": "Casse Droit",
        "lat": "47.406864",
        "lon": "0.662432"
    },
    "TTR:AC-CALDB-1": {
        "name": "Calder",
        "lat": "47.35167043",
        "lon": "0.69699589"
    },
    "TTR:AC-CAMEB-1": {
        "name": "Cam\u00c3\u00a9lias",
        "lat": "47.35962059",
        "lon": "0.6916936"
    },
    "TTR:AC-CAMSB-1": {
        "name": "Camusi\u00c3\u00a8re",
        "lat": "47.35797218",
        "lon": "0.73708021"
    },
    "TTR:AC-CAMUB-1": {
        "name": "Camus",
        "lat": "47.35905489",
        "lon": "0.69367069"
    },
    "TTR:AC-CANLB-1": {
        "name": "Canal",
        "lat": "47.38979813",
        "lon": "0.70256758"
    },
    "TTR:AC-CANTB-1": {
        "name": "Chantepie",
        "lat": "47.35548325",
        "lon": "0.66109077"
    },
    "TTR:AC-CAPUB-1": {
        "name": "Capucins",
        "lat": "47.4017612",
        "lon": "0.68966512"
    },
    "TTR:AC-CARAB-1": {
        "name": "Carnaux",
        "lat": "47.36084205",
        "lon": "0.6337509"
    },
    "TTR:AC-CARCB-1": {
        "name": "Carcassonne",
        "lat": "47.41550222",
        "lon": "0.70892428"
    },
    "TTR:AC-CARLB-1": {
        "name": "Carlotti",
        "lat": "47.35954668",
        "lon": "0.70680391"
    },
    "TTR:AC-CARNB-1": {
        "name": "Carnot",
        "lat": "47.38057258",
        "lon": "0.68773611"
    },
    "TTR:AC-CARRB-2": {
        "name": "Carr\u00c3\u00a9",
        "lat": "47.363911",
        "lon": "0.651809"
    },
    "TTR:AC-CASIB-2": {
        "name": "Castellerie",
        "lat": "47.35869738",
        "lon": "0.72193757"
    },
    "TTR:AC-CASNB-2": {
        "name": "Cassantin",
        "lat": "47.46693939",
        "lon": "0.74141061"
    },
    "TTR:AC-CASOB-1": {
        "name": "Cap Soleil",
        "lat": "47.34015915",
        "lon": "0.64799106"
    },
    "TTR:AC-CASSB-1": {
        "name": "Cassin",
        "lat": "47.34403607",
        "lon": "0.61439096"
    },
    "TTR:AC-CASTB-1": {
        "name": "Castel",
        "lat": "47.43565021",
        "lon": "0.63289916"
    },
    "TTR:AC-CATEB-2": {
        "name": "Cath\u00c3\u00a9drale",
        "lat": "47.39505",
        "lon": "0.693821"
    },
    "TTR:AC-CEDRB-2": {
        "name": "C\u00c3\u00a8dres",
        "lat": "47.403591",
        "lon": "0.677112"
    },
    "TTR:AC-CERCB-1": {
        "name": "Cercel\u00c3\u00a9",
        "lat": "47.33399757",
        "lon": "0.6536519"
    },
    "TTR:AC-CGALB-1": {
        "name": "Chagall",
        "lat": "47.35154894",
        "lon": "0.74495123"
    },
    "TTR:AC-CHAAB-1": {
        "name": "Charentais",
        "lat": "47.41990403",
        "lon": "0.66427602"
    },
    "TTR:AC-CHAIB-1": {
        "name": "Chanterie",
        "lat": "47.41538794",
        "lon": "0.67555186"
    },
    "TTR:AC-CHAMB-1": {
        "name": "Chambrerie",
        "lat": "47.41888506",
        "lon": "0.70700497"
    },
    "TTR:AC-CHANB-1": {
        "name": "Change",
        "lat": "47.393406",
        "lon": "0.682027"
    },
    "TTR:AC-CHAPB-1": {
        "name": "Chappe",
        "lat": "47.3443782",
        "lon": "0.69794787"
    },
    "TTR:AC-CHARB-1": {
        "name": "Charcot",
        "lat": "47.37736044",
        "lon": "0.6940475"
    },
    "TTR:AC-CHATB-1": {
        "name": "Chantemerle",
        "lat": "47.39418517",
        "lon": "0.59263191"
    },
    "TTR:AC-CHAUB-1": {
        "name": "Chaumette",
        "lat": "47.3576403",
        "lon": "0.64856354"
    },
    "TTR:AC-CHBA-1T": {
        "name": "Charles Barrier",
        "lat": "47.40518976",
        "lon": "0.68277401"
    },
    "TTR:AC-CHCAB-1": {
        "name": "Ch\u00c3\u00a2teau de Cang\u00c3\u00a9",
        "lat": "47.36562744",
        "lon": "0.75267545"
    },
    "TTR:AC-CHCEB-1": {
        "name": "Chambray Centre",
        "lat": "47.33800196",
        "lon": "0.71472784"
    },
    "TTR:AC-CHCHB-1": {
        "name": "Champ Chardon",
        "lat": "47.41666983",
        "lon": "0.69413558"
    },
    "TTR:AC-CHCNB-1": {
        "name": "Chanceaux Centre",
        "lat": "47.47244369",
        "lon": "0.70127948"
    },
    "TTR:AC-CHDAB-1": {
        "name": "Ch\u00c3\u00a2teau d'Eau",
        "lat": "47.37485714",
        "lon": "0.70597869"
    },
    "TTR:AC-CHDCB-1": {
        "name": "Champ de Course",
        "lat": "47.33036183",
        "lon": "0.70822386"
    },
    "TTR:AC-CHDDB-2": {
        "name": "Chambray 2 Sud",
        "lat": "47.33538433",
        "lon": "0.70136055"
    },
    "TTR:AC-CHDEB-1": {
        "name": "Chambray 2",
        "lat": "47.33772277",
        "lon": "0.70193749"
    },
    "TTR:AC-CHDJB-1": {
        "name": "Chambray 2 Joule",
        "lat": "47.33879795",
        "lon": "0.70480324"
    },
    "TTR:AC-CHDLB-1": {
        "name": "Ch\u00c3\u00a2teau Luynes",
        "lat": "47.39060649",
        "lon": "0.54974195"
    },
    "TTR:AC-CHDTB-1": {
        "name": "Ch\u00c3\u00a2teau de Tours",
        "lat": "47.39747643",
        "lon": "0.6933088"
    },
    "TTR:AC-CHEAB-1": {
        "name": "Chevalette",
        "lat": "47.38936105",
        "lon": "0.59671127"
    },
    "TTR:AC-CHEMB-1": {
        "name": "Chemin Vert",
        "lat": "47.35976077",
        "lon": "0.69586023"
    },
    "TTR:AC-CHENB-1": {
        "name": "Chenonceau",
        "lat": "47.34930466",
        "lon": "0.67811095"
    },
    "TTR:AC-CHESB-1": {
        "name": "Chesnaies",
        "lat": "47.34901315",
        "lon": "0.57863127"
    },
    "TTR:AC-CHEVB-1": {
        "name": "Chevalerie",
        "lat": "47.32769026",
        "lon": "0.5893906"
    },
    "TTR:AC-CHFRB-1": {
        "name": "Ch\u00c3\u00a2teau Fraisier",
        "lat": "47.36259664",
        "lon": "0.73447868"
    },
    "TTR:AC-CHGAB-1": {
        "name": "Ch\u00c3\u00a2teau Gaillard",
        "lat": "47.37218509",
        "lon": "0.58360286"
    },
    "TTR:AC-CHGEB-2": {
        "name": "Champ Girault",
        "lat": "47.3880186",
        "lon": "0.69697839"
    },
    "TTR:AC-CHJOB-1": {
        "name": "Champ Joli",
        "lat": "47.37985195",
        "lon": "0.70863421"
    },
    "TTR:AC-CHLLB-1": {
        "name": "Choisille",
        "lat": "47.43689212",
        "lon": "0.63781888"
    },
    "TTR:AC-CHOI-1T": {
        "name": "Place Choiseul",
        "lat": "47.4019157",
        "lon": "0.68409468"
    },
    "TTR:AC-CHONB-2": {
        "name": "Chaudron",
        "lat": "47.406759",
        "lon": "0.705507"
    },
    "TTR:AC-CHOPB-1": {
        "name": "Chopin",
        "lat": "47.41202595",
        "lon": "0.70293353"
    },
    "TTR:AC-CHPEB-1": {
        "name": "Champeign\u00c3\u00a9",
        "lat": "47.45233859",
        "lon": "0.70530539"
    },
    "TTR:AC-CHRI-1T": {
        "name": "Christ Roi",
        "lat": "47.41215728",
        "lon": "0.68493041"
    },
    "TTR:AC-CHTIB-1": {
        "name": "Chatigny",
        "lat": "47.38949189",
        "lon": "0.58927439"
    },
    "TTR:AC-CHURB-1": {
        "name": "Churchill",
        "lat": "47.37345593",
        "lon": "0.68585012"
    },
    "TTR:AC-CHVAB-1": {
        "name": "Chevallier",
        "lat": "47.37419864",
        "lon": "0.6786485"
    },
    "TTR:AC-CHVEB-1": {
        "name": "Ch\u00c3\u00aane Vert",
        "lat": "47.38749404",
        "lon": "0.57028861"
    },
    "TTR:AC-CHVRB-1": {
        "name": "Chevreul",
        "lat": "47.42408519",
        "lon": "0.65851055"
    },
    "TTR:AC-CLARB-1": {
        "name": "Clart\u00c3\u00a9",
        "lat": "47.41233398",
        "lon": "0.66154446"
    },
    "TTR:AC-CLBEB-1": {
        "name": "Clos Besnard",
        "lat": "47.41552",
        "lon": "0.653187"
    },
    "TTR:AC-CLDIB-1": {
        "name": "Cousinerie",
        "lat": "47.43459718",
        "lon": "0.6900826"
    },
    "TTR:AC-CLDVB-1": {
        "name": "Clos de Vernou",
        "lat": "47.41648217",
        "lon": "0.84926379"
    },
    "TTR:AC-CLLUB-1A": {
        "name": "Clos Luc\u00c3\u00a9",
        "lat": "47.34687035",
        "lon": "0.67650534"
    },
    "TTR:AC-CLNOB-1": {
        "name": "Clos Neuf",
        "lat": "47.35758957",
        "lon": "0.65743643"
    },
    "TTR:AC-CLOCB-1": {
        "name": "Clocheville",
        "lat": "47.38911663",
        "lon": "0.68184145"
    },
    "TTR:AC-CLOMB-1": {
        "name": "Colombier",
        "lat": "47.41506619",
        "lon": "0.70224392"
    },
    "TTR:AC-CLPIB-1": {
        "name": "Clos Pichet",
        "lat": "47.35605405",
        "lon": "0.74673671"
    },
    "TTR:AC-CLROB-1": {
        "name": "Clos Robert",
        "lat": "47.34693794",
        "lon": "0.68688182"
    },
    "TTR:AC-CLSVB-1": {
        "name": "Clos St Victor",
        "lat": "47.358597",
        "lon": "0.667031"
    },
    "TTR:AC-CLVAB-1": {
        "name": "Clos Vaumont",
        "lat": "47.36212917",
        "lon": "0.72028449"
    },
    "TTR:AC-CLVEB-1": {
        "name": "Clinique Velpeau",
        "lat": "47.40683268",
        "lon": "0.68883261"
    },
    "TTR:AC-COCOB-1": {
        "name": "Becquerel",
        "lat": "47.37714193",
        "lon": "0.73232007"
    },
    "TTR:AC-COLEB-1": {
        "name": "Colette",
        "lat": "47.39760888",
        "lon": "0.77097841"
    },
    "TTR:AC-COLMB-1": {
        "name": "Coll\u00c3\u00a8ge Montaigne",
        "lat": "47.429531",
        "lon": "0.680892"
    },
    "TTR:AC-COMMB-1": {
        "name": "Commanderie",
        "lat": "47.35672694",
        "lon": "0.61047275"
    },
    "TTR:AC-COMPB-1": {
        "name": "Compagnon",
        "lat": "47.42873715",
        "lon": "0.67915317"
    },
    "TTR:AC-CONDB-1": {
        "name": "Condorcet",
        "lat": "47.42319067",
        "lon": "0.66633381"
    },
    "TTR:AC-COPPB-1": {
        "name": "Copp\u00c3\u00a9e",
        "lat": "47.42374211",
        "lon": "0.69101442"
    },
    "TTR:AC-COQUB-1": {
        "name": "Coquini\u00c3\u00a8re",
        "lat": "47.45150605",
        "lon": "0.7120026"
    },
    "TTR:AC-CORNB-1": {
        "name": "Cornouillers",
        "lat": "47.39345127",
        "lon": "0.71602308"
    },
    "TTR:AC-CORTB-1": {
        "name": "Courteline",
        "lat": "47.392651",
        "lon": "0.671914"
    },
    "TTR:AC-COSSB-1": {
        "name": "Cosson",
        "lat": "47.41662861",
        "lon": "0.84247329"
    },
    "TTR:AC-COTYB-1A": {
        "name": "Coty",
        "lat": "47.40962485",
        "lon": "0.68400158"
    },
    "TTR:AC-COUBB-1Z": {
        "name": "Coubertin",
        "lat": "47.34457533",
        "lon": "0.65838845"
    },
    "TTR:AC-COUDB-1": {
        "name": "Coudraye",
        "lat": "47.32018044",
        "lon": "0.62992649"
    },
    "TTR:AC-COULB-1": {
        "name": "Couleuvrou",
        "lat": "47.4528928",
        "lon": "0.71401626"
    },
    "TTR:AC-COURB-1": {
        "name": "Courbet",
        "lat": "47.35330818",
        "lon": "0.74464723"
    },
    "TTR:AC-COUSB-1": {
        "name": "Cousseau",
        "lat": "47.40955327",
        "lon": "0.66710554"
    },
    "TTR:AC-CRBUB-1": {
        "name": "La Croix Buiss\u00c3\u00a9e",
        "lat": "47.41202407",
        "lon": "0.80748015"
    },
    "TTR:AC-CRDPB-1": {
        "name": "Croix de Pierre",
        "lat": "47.42569201",
        "lon": "0.65144669"
    },
    "TTR:AC-CRJUB-1A": {
        "name": "Croix Julia",
        "lat": "47.44302256",
        "lon": "0.63928121"
    },
    "TTR:AC-CROUB-1": {
        "name": "Crouzill\u00c3\u00a8re",
        "lat": "47.35821901",
        "lon": "0.65061082"
    },
    "TTR:AC-CRPAB-1": {
        "name": "Croix Pasquier",
        "lat": "47.40946507",
        "lon": "0.68920189"
    },
    "TTR:AC-CRPEB-1": {
        "name": "Croix Perray",
        "lat": "47.35635497",
        "lon": "0.7281651"
    },
    "TTR:AC-CRUCB-1": {
        "name": "Crucifix",
        "lat": "47.40230189",
        "lon": "0.63012137"
    },
    "TTR:AC-CTPEB-1": {
        "name": "Centre de Permis",
        "lat": "47.44912812",
        "lon": "0.72597495"
    },
    "TTR:AC-CUGNB-1": {
        "name": "Cugnot",
        "lat": "47.346012",
        "lon": "0.64338451"
    },
    "TTR:AC-CUREB-1": {
        "name": "La Cure",
        "lat": "47.36341518",
        "lon": "0.5369197"
    },
    "TTR:AC-CVALB-2": {
        "name": "ESAT les Vall\u00c3\u00a9es",
        "lat": "47.39065841",
        "lon": "0.53741833"
    },
    "TTR:AC-DABLB-1A": {
        "name": "Dames Blanches",
        "lat": "47.39475337",
        "lon": "0.67525367"
    },
    "TTR:AC-DALEB-1": {
        "name": "D'Alembert",
        "lat": "47.43064889",
        "lon": "0.69715213"
    },
    "TTR:AC-DANEB-1": {
        "name": "Danemark",
        "lat": "47.43283345",
        "lon": "0.69766834"
    },
    "TTR:AC-DARWB-1": {
        "name": "Darwin",
        "lat": "47.33856154",
        "lon": "0.68625379"
    },
    "TTR:AC-DASSB-1": {
        "name": "Dassault",
        "lat": "47.36373657",
        "lon": "0.68820325"
    },
    "TTR:AC-DEBRB-1": {
        "name": "Debrou",
        "lat": "47.354797",
        "lon": "0.673002"
    },
    "TTR:AC-DEBRB-2": {
        "name": "Debr\u00c3\u00a9",
        "lat": "47.41547994",
        "lon": "0.84828441"
    },
    "TTR:AC-DECLB-1": {
        "name": "De Cl\u00c3\u00a9rambault",
        "lat": "47.35125661",
        "lon": "0.71293508"
    },
    "TTR:AC-DECRB-1": {
        "name": "Deux Croix",
        "lat": "47.40384676",
        "lon": "0.6226374"
    },
    "TTR:AC-DEGAB-1": {
        "name": "De Gaulle",
        "lat": "47.35551452",
        "lon": "0.72466859"
    },
    "TTR:AC-DELAB-1": {
        "name": "Delaroche",
        "lat": "47.42046267",
        "lon": "0.68060346"
    },
    "TTR:AC-DELCB-1": {
        "name": "Delacroix",
        "lat": "47.42013659",
        "lon": "0.67354806"
    },
    "TTR:AC-DELPB-1": {
        "name": "Delprat",
        "lat": "47.3961537",
        "lon": "0.76385293"
    },
    "TTR:AC-DEPOB-1": {
        "name": "D\u00c3\u00a9port\u00c3\u00a9s",
        "lat": "47.39199458",
        "lon": "0.73351628"
    },
    "TTR:AC-DESLB-1": {
        "name": "Deslandes",
        "lat": "47.38583736",
        "lon": "0.7036957"
    },
    "TTR:AC-DESMB-1": {
        "name": "Desmoulins",
        "lat": "47.38976817",
        "lon": "0.66769821"
    },
    "TTR:AC-DETAB-1": {
        "name": "De Tastes",
        "lat": "47.41214094",
        "lon": "0.70790028"
    },
    "TTR:AC-DEVIB-2": {
        "name": "Devini\u00c3\u00a8re",
        "lat": "47.33706167",
        "lon": "0.73699183"
    },
    "TTR:AC-DEVLB-1": {
        "name": "Devild\u00c3\u00a9",
        "lat": "47.41135015",
        "lon": "0.69269571"
    },
    "TTR:AC-DEWOB-1": {
        "name": "Dewoitine",
        "lat": "47.44220792",
        "lon": "0.71489856"
    },
    "TTR:AC-DLMOB-1": {
        "name": "De la Motte",
        "lat": "47.38616692",
        "lon": "0.76119315"
    },
    "TTR:AC-DOFOB-1": {
        "name": "Docteur Fournier",
        "lat": "47.38512172",
        "lon": "0.70016731"
    },
    "TTR:AC-DOLEB-1": {
        "name": "Docteur Lebled",
        "lat": "47.41462199",
        "lon": "0.75510366"
    },
    "TTR:AC-DOLMB-2": {
        "name": "Dolmen",
        "lat": "47.45428158",
        "lon": "0.64692121"
    },
    "TTR:AC-DORGB-2": {
        "name": "Dorgel\u00c3\u00a8s",
        "lat": "47.408901",
        "lon": "0.706171"
    },
    "TTR:AC-DOUEB-1": {
        "name": "Les Douets",
        "lat": "47.43677106",
        "lon": "0.68353118"
    },
    "TTR:AC-DOUZB-1": {
        "name": "Douzill\u00c3\u00a8re",
        "lat": "47.34665801",
        "lon": "0.65682709"
    },
    "TTR:AC-DRUYB-1": {
        "name": "Druye Centre",
        "lat": "47.307411",
        "lon": "0.537324"
    },
    "TTR:AC-DUJAB-1": {
        "name": "Dujardin",
        "lat": "47.34627724",
        "lon": "0.71009478"
    },
    "TTR:AC-DUNAB-1": {
        "name": "Dunant",
        "lat": "47.340916",
        "lon": "0.617709"
    },
    "TTR:AC-DUPEB-1": {
        "name": "Duperr\u00c3\u00a9",
        "lat": "47.35128424",
        "lon": "0.62747586"
    },
    "TTR:AC-DUPPB-1": {
        "name": "Duplessis",
        "lat": "47.38110903",
        "lon": "0.68497752"
    },
    "TTR:AC-DUPUB-1": {
        "name": "Dupuy",
        "lat": "47.40749693",
        "lon": "0.59892928"
    },
    "TTR:AC-DUQUB-1": {
        "name": "Duquesne",
        "lat": "47.35807929",
        "lon": "0.70674278"
    },
    "TTR:AC-DUVAB-1": {
        "name": "Duval",
        "lat": "47.43504209",
        "lon": "0.70498613"
    },
    "TTR:AC-ECCOB-1": {
        "name": "Ecole Commerce",
        "lat": "47.36434504",
        "lon": "0.7050948"
    },
    "TTR:AC-ECINB-1": {
        "name": "Ec. Infirmi\u00c3\u00a8res",
        "lat": "47.34657459",
        "lon": "0.71653252"
    },
    "TTR:AC-EGALB-1": {
        "name": "Egalit\u00c3\u00a9",
        "lat": "47.38733291",
        "lon": "0.71471193"
    },
    "TTR:AC-EMMOB-1": {
        "name": "Les Emmoni\u00c3\u00a8res",
        "lat": "47.36161502",
        "lon": "0.52937939"
    },
    "TTR:AC-EMZOB-1": {
        "name": "Zola",
        "lat": "47.393345",
        "lon": "0.689064"
    },
    "TTR:AC-ENGEB-1": {
        "name": "Engerand",
        "lat": "47.41199287",
        "lon": "0.67470332"
    },
    "TTR:AC-EPENB-1": {
        "name": "L'Epend",
        "lat": "47.35699767",
        "lon": "0.64338031"
    },
    "TTR:AC-EPINB-1": {
        "name": "Epinettes",
        "lat": "47.41886306",
        "lon": "0.66945195"
    },
    "TTR:AC-EQUAB-1": {
        "name": "St Cyr Equatop",
        "lat": "47.42655577",
        "lon": "0.65578122"
    },
    "TTR:AC-ERABB-1": {
        "name": "Erables",
        "lat": "47.37726041",
        "lon": "0.67946731"
    },
    "TTR:AC-ERMIB-1": {
        "name": "Ermitage",
        "lat": "47.405441",
        "lon": "0.703228"
    },
    "TTR:AC-ESDOB-1": {
        "name": "Estienne d'Orves",
        "lat": "47.38838114",
        "lon": "0.71889297"
    },
    "TTR:AC-ESLIB-1": {
        "name": "ESAT Liodi\u00c3\u00a8re",
        "lat": "47.321851",
        "lon": "0.658917"
    },
    "TTR:AC-ESPAB-2": {
        "name": "Espace Aquatique",
        "lat": "47.41109807",
        "lon": "0.609296"
    },
    "TTR:AC-ESPEB-1": {
        "name": "L'Esp\u00c3\u00a9rance",
        "lat": "47.38177698",
        "lon": "0.50014868"
    },
    "TTR:AC-ESSAB-1": {
        "name": "L'Essart",
        "lat": "47.36971712",
        "lon": "0.71859789"
    },
    "TTR:AC-EUGRB-1": {
        "name": "Eug\u00c3\u00a9nie Grandet",
        "lat": "47.39820926",
        "lon": "0.75690209"
    },
    "TTR:AC-EUROB-1": {
        "name": "Europe",
        "lat": "47.42226279",
        "lon": "0.6806536"
    },
    "TTR:AC-EURPB-1": {
        "name": "Europarc",
        "lat": "47.43289729",
        "lon": "0.70409712"
    },
    "TTR:AC-EVLAB-1": {
        "name": "Eve Lavali\u00c3\u00a8re",
        "lat": "47.47176744",
        "lon": "0.70500227"
    },
    "TTR:AC-FACDB-1": {
        "name": "Fac 2 Lions",
        "lat": "47.36688109",
        "lon": "0.68410677"
    },
    "TTR:AC-FACGB-1": {
        "name": "Fac Grandmont",
        "lat": "47.35682265",
        "lon": "0.70249128"
    },
    "TTR:AC-FACTB-1": {
        "name": "Fac Tanneurs",
        "lat": "47.3958482",
        "lon": "0.68070512"
    },
    "TTR:AC-FARDB-1": {
        "name": "Faraday",
        "lat": "47.33304",
        "lon": "0.700665"
    },
    "TTR:AC-FAUVB-1": {
        "name": "Fauvettes",
        "lat": "47.34279052",
        "lon": "0.65074058"
    },
    "TTR:AC-FELIB-1": {
        "name": "F\u00c3\u00a9lix",
        "lat": "47.38932938",
        "lon": "0.66099492"
    },
    "TTR:AC-FERRB-1": {
        "name": "Ferranderie",
        "lat": "47.34315226",
        "lon": "0.69651619"
    },
    "TTR:AC-FIANB-1": {
        "name": "Florian",
        "lat": "47.38399656",
        "lon": "0.70395075"
    },
    "TTR:AC-FOBLB-1": {
        "name": "Fontaine Blanche",
        "lat": "47.34166046",
        "lon": "0.68967896"
    },
    "TTR:AC-FOBOB-1": {
        "name": "Fosses Boiss\u00c3\u00a9es",
        "lat": "47.40756035",
        "lon": "0.6705342"
    },
    "TTR:AC-FOCEB-1": {
        "name": "Fondettes Centre",
        "lat": "47.40252405",
        "lon": "0.59610959"
    },
    "TTR:AC-FOCHB-1": {
        "name": "Foch",
        "lat": "47.403671",
        "lon": "0.663805"
    },
    "TTR:AC-FODMB-1": {
        "name": "Fontaine de Mie",
        "lat": "47.43256294",
        "lon": "0.67365095"
    },
    "TTR:AC-FOGAB-1": {
        "name": "Fondettes Gare",
        "lat": "47.39833481",
        "lon": "0.64548681"
    },
    "TTR:AC-FONEB-1": {
        "name": "Fontenelles",
        "lat": "47.41678241",
        "lon": "0.75584814"
    },
    "TTR:AC-FONTB-1": {
        "name": "Fontaines",
        "lat": "47.36735037",
        "lon": "0.71342545"
    },
    "TTR:AC-FOPOB-1": {
        "name": "Fosse Poitevine",
        "lat": "47.36437559",
        "lon": "0.74864729"
    },
    "TTR:AC-FOSBB-1": {
        "name": "Foss\u00c3\u00a9s Blancs",
        "lat": "47.34371772",
        "lon": "0.69262034"
    },
    "TTR:AC-FOSNB-2": {
        "name": "Fosse Neuve",
        "lat": "47.44866075",
        "lon": "0.7461887"
    },
    "TTR:AC-FOUNB-1": {
        "name": "Fourneau",
        "lat": "47.35010894",
        "lon": "0.73969874"
    },
    "TTR:AC-FOURB-1": {
        "name": "Fourbisserie",
        "lat": "47.35385395",
        "lon": "0.69870294"
    },
    "TTR:AC-FRASB-1": {
        "name": "Frasne",
        "lat": "47.43826659",
        "lon": "0.75056981"
    },
    "TTR:AC-FRESB-1": {
        "name": "Fresnel",
        "lat": "47.34550386",
        "lon": "0.72876997"
    },
    "TTR:AC-FROMB-2": {
        "name": "Fromental",
        "lat": "47.364044",
        "lon": "0.648679"
    },
    "TTR:AC-FRSBB-1": {
        "name": "F. Sicard",
        "lat": "47.394344",
        "lon": "0.692915"
    },
    "TTR:AC-FRUMB-1": {
        "name": "Frumeaud",
        "lat": "47.38913616",
        "lon": "0.67504439"
    },
    "TTR:AC-FUSNB-1": {
        "name": "Fusaparc",
        "lat": "47.42568525",
        "lon": "0.70434448"
    },
    "TTR:AC-FUTRB-2": {
        "name": "Futreaux",
        "lat": "47.397503",
        "lon": "0.656008"
    },
    "TTR:AC-FUYEB-1": {
        "name": "La Fuye",
        "lat": "47.38558387",
        "lon": "0.70358423"
    },
    "TTR:AC-GAESB-1": {
        "name": "G. d'Estr\u00c3\u00a9es",
        "lat": "47.39416727",
        "lon": "0.7799565"
    },
    "TTR:AC-GAGEB-1": {
        "name": "Gagneraye",
        "lat": "47.31696306",
        "lon": "0.64363046"
    },
    "TTR:AC-GAGNB-1": {
        "name": "Gagnerie",
        "lat": "47.42435814",
        "lon": "0.64696811"
    },
    "TTR:AC-GALBB-1": {
        "name": "Galbrunes",
        "lat": "47.34314425",
        "lon": "0.60949545"
    },
    "TTR:AC-GAMAB-1": {
        "name": "Gamard",
        "lat": "47.34891159",
        "lon": "0.66394472"
    },
    "TTR:AC-GAMOB-1": {
        "name": "G\u00c3\u00a9n\u00c3\u00a9ral Mocquery",
        "lat": "47.34397597",
        "lon": "0.73601694"
    },
    "TTR:AC-GANNB-1": {
        "name": "Gannay",
        "lat": "47.38841424",
        "lon": "0.57812785"
    },
    "TTR:AC-GATO-1T": {
        "name": "Gare de Tours",
        "lat": "47.38906503",
        "lon": "0.69336917"
    },
    "TTR:AC-GAUDB-1": {
        "name": "Gaudi\u00c3\u00a8res",
        "lat": "47.459188",
        "lon": "0.675128"
    },
    "TTR:AC-GAVNB-1": {
        "name": "Gare Vinci",
        "lat": "47.39092676",
        "lon": "0.69268913"
    },
    "TTR:AC-GDCAB-1A": {
        "name": "Grand Carroi",
        "lat": "47.38550806",
        "lon": "0.64693995"
    },
    "TTR:AC-GEESB-2": {
        "name": "G\u00c3\u00a9n\u00c3\u00a9ral Estienne",
        "lat": "47.41364003",
        "lon": "0.69302275"
    },
    "TTR:AC-GEREB-1": {
        "name": "G\u00c3\u00a9n\u00c3\u00a9ral Renault",
        "lat": "47.37973348",
        "lon": "0.67625117"
    },
    "TTR:AC-GIRAB-1": {
        "name": "Giraudeau",
        "lat": "47.38230926",
        "lon": "0.67705855"
    },
    "TTR:AC-GIRUB-1": {
        "name": "Giraudoux",
        "lat": "47.4158926",
        "lon": "0.71173568"
    },
    "TTR:AC-GLYCB-1": {
        "name": "Glycines",
        "lat": "47.3973179",
        "lon": "0.55553305"
    },
    "TTR:AC-GNDOB-1": {
        "name": "Gare ND d'O\u00c3\u00a9",
        "lat": "47.4584706",
        "lon": "0.70631154"
    },
    "TTR:AC-GOLFB-1": {
        "name": "Golf",
        "lat": "47.40326293",
        "lon": "0.70230082"
    },
    "TTR:AC-GOUJB-2": {
        "name": "Goujon",
        "lat": "47.34409134",
        "lon": "0.65727848"
    },
    "TTR:AC-GRANB-2": {
        "name": "Lyc\u00c3\u00a9e Grandmont",
        "lat": "47.36063392",
        "lon": "0.70224219"
    },
    "TTR:AC-GRCHB-1": {
        "name": "Gros Ch\u00c3\u00aane",
        "lat": "47.39752413",
        "lon": "0.75943994"
    },
    "TTR:AC-GRCOB-2": {
        "name": "Grand Cour",
        "lat": "47.38976712",
        "lon": "0.71571105"
    },
    "TTR:AC-GRDMB-1": {
        "name": "Grange de Meslay",
        "lat": "47.44568975",
        "lon": "0.74211301"
    },
    "TTR:AC-GRENB-1": {
        "name": "Grenouill\u00c3\u00a8re",
        "lat": "47.33387467",
        "lon": "0.7123386"
    },
    "TTR:AC-GRGAB-1": {
        "name": "Granges Galand",
        "lat": "47.36867472",
        "lon": "0.71933138"
    },
    "TTR:AC-GRMAB-1": {
        "name": "Grand Mail",
        "lat": "47.39371991",
        "lon": "0.72559427"
    },
    "TTR:AC-GRMOB-2": {
        "name": "Grands Mortiers",
        "lat": "47.38196215",
        "lon": "0.72698251"
    },
    "TTR:AC-GRMRB-1": {
        "name": "Grand March\u00c3\u00a9",
        "lat": "47.39232287",
        "lon": "0.67955587"
    },
    "TTR:AC-GRMUB-1": {
        "name": "Grand Moulin",
        "lat": "47.35917609",
        "lon": "0.6075864"
    },
    "TTR:AC-GRORB-1": {
        "name": "Grand Ormeau",
        "lat": "47.40472378",
        "lon": "0.61263005"
    },
    "TTR:AC-GRSDB-2A": {
        "name": "Grand Sud",
        "lat": "47.32936636",
        "lon": "0.70526343"
    },
    "TTR:AC-GRTHB-2": {
        "name": "Grand Th\u00c3\u00a9\u00c3\u00a2tre",
        "lat": "47.394791",
        "lon": "0.689364"
    },
    "TTR:AC-GRVIB-1": {
        "name": "Grand Village",
        "lat": "47.38744779",
        "lon": "0.77270735"
    },
    "TTR:AC-GUANB-2": {
        "name": "Gu\u00c3\u00a9 Andreau",
        "lat": "47.44879476",
        "lon": "0.64454862"
    },
    "TTR:AC-GUERB-1": {
        "name": "Gu\u00c3\u00a9rin",
        "lat": "47.410011",
        "lon": "0.649345"
    },
    "TTR:AC-GUESB-1": {
        "name": "Guesne",
        "lat": "47.39843932",
        "lon": "0.59551407"
    },
    "TTR:AC-GUGNB-1A": {
        "name": "Guignardi\u00c3\u00a8re",
        "lat": "47.34056477",
        "lon": "0.68603304"
    },
    "TTR:AC-GUIGB-1": {
        "name": "Guigni\u00c3\u00a8re",
        "lat": "47.39207193",
        "lon": "0.64296925"
    },
    "TTR:AC-GULLB-1": {
        "name": "Guilloti\u00c3\u00a8re",
        "lat": "47.32089671",
        "lon": "0.64436585"
    },
    "TTR:AC-GULOB-1": {
        "name": "Guillaume Louis",
        "lat": "47.33899837",
        "lon": "0.69101848"
    },
    "TTR:AC-GURAB-2A": {
        "name": "Guy Raynaud",
        "lat": "47.41025",
        "lon": "0.668913"
    },
    "TTR:AC-GUYNB-1": {
        "name": "Guynemer",
        "lat": "47.41556592",
        "lon": "0.6685344"
    },
    "TTR:AC-HABOB-1": {
        "name": "Haut Bourg",
        "lat": "47.413219",
        "lon": "0.646659"
    },
    "TTR:AC-HADOB-2": {
        "name": "Halte Douzill\u00c3\u00a8re",
        "lat": "47.33948574",
        "lon": "0.65363776"
    },
    "TTR:AC-HALIB-1": {
        "name": "Haute Limoug\u00c3\u00a8re",
        "lat": "47.40439807",
        "lon": "0.61977041"
    },
    "TTR:AC-HALLB-1": {
        "name": "Halles",
        "lat": "47.39061943",
        "lon": "0.68186108"
    },
    "TTR:AC-HARDB-1": {
        "name": "Hardouin",
        "lat": "47.41752641",
        "lon": "0.69110021"
    },
    "TTR:AC-HAROB-1": {
        "name": "Hautes Roches",
        "lat": "47.41024938",
        "lon": "0.77496765"
    },
    "TTR:AC-HENRB-1": {
        "name": "Henry",
        "lat": "47.31572633",
        "lon": "0.65938731"
    },
    "TTR:AC-HERAB-1": {
        "name": "H\u00c3\u00a9raults",
        "lat": "47.36448784",
        "lon": "0.74437999"
    },
    "TTR:AC-HETR-1T": {
        "name": "L'Heure Tranquille",
        "lat": "47.36722425",
        "lon": "0.67791166"
    },
    "TTR:AC-HETRB-1Z": {
        "name": "Heure Tranquille",
        "lat": "47.36559003",
        "lon": "0.6775122"
    },
    "TTR:AC-HEURB-1": {
        "name": "Heurteloup",
        "lat": "47.39152856",
        "lon": "0.697056"
    },
    "TTR:AC-HOLNB-1": {
        "name": "Holnon",
        "lat": "47.41103875",
        "lon": "0.80169014"
    },
    "TTR:AC-HONOB-1": {
        "name": "Homme Noir",
        "lat": "47.3997",
        "lon": "0.662286"
    },
    "TTR:AC-HOPIB-1": {
        "name": "L'H\u00c3\u00b4pitau",
        "lat": "47.4515654",
        "lon": "0.71046218"
    },
    "TTR:AC-HOPPB-1": {
        "name": "H\u00c3\u00b4pital Pag\u00c3\u00a8s",
        "lat": "47.3943442",
        "lon": "0.55406882"
    },
    "TTR:AC-HOSPB-1": {
        "name": "Hospitalit\u00c3\u00a9",
        "lat": "47.34004849",
        "lon": "0.60644528"
    },
    "TTR:AC-HOVEB-1": {
        "name": "Horizon Vert",
        "lat": "47.34519877",
        "lon": "0.71915557"
    },
    "TTR:AC-HUYGB-1": {
        "name": "Huygens",
        "lat": "47.43691649",
        "lon": "0.70137501"
    },
    "TTR:AC-ILAUB-1": {
        "name": "Ile Aucard",
        "lat": "47.40280615",
        "lon": "0.69735865"
    },
    "TTR:AC-ILSIB-1": {
        "name": "Ile Simon",
        "lat": "47.39580557",
        "lon": "0.67710241"
    },
    "TTR:AC-IMEB-2": {
        "name": "IME",
        "lat": "47.38856885",
        "lon": "0.54191391"
    },
    "TTR:AC-INDYB-1A": {
        "name": "D'Indy",
        "lat": "47.36769617",
        "lon": "0.70794556"
    },
    "TTR:AC-IUTB-1": {
        "name": "IUT",
        "lat": "47.40853962",
        "lon": "0.70325238"
    },
    "TTR:AC-JADEB-1": {
        "name": "Jacques Decour",
        "lat": "47.39502937",
        "lon": "0.72465374"
    },
    "TTR:AC-JAMOB-1": {
        "name": "Jacques Monod",
        "lat": "47.36896689",
        "lon": "0.67896995"
    },
    "TTR:AC-JAUNB-1": {
        "name": "Jaunay",
        "lat": "47.40250961",
        "lon": "0.66780308"
    },
    "TTR:AC-JEBAB-1": {
        "name": "Jean Bart",
        "lat": "47.32893885",
        "lon": "0.60119404"
    },
    "TTR:AC-JEBOB-1": {
        "name": "Jean Bonnin",
        "lat": "47.39528925",
        "lon": "0.71299928"
    },
    "TTR:AC-JEDAB-1": {
        "name": "Jeanne d'Arc",
        "lat": "47.3954916",
        "lon": "0.76809911"
    },
    "TTR:AC-JEMOB-1": {
        "name": "Jean Moulin",
        "lat": "47.39013074",
        "lon": "0.7262856"
    },
    "TTR:AC-JERIB-1": {
        "name": "J\u00c3\u00a9richo",
        "lat": "47.39582147",
        "lon": "0.70989583"
    },
    "TTR:AC-JERUB-1": {
        "name": "J\u00c3\u00a9rusalem",
        "lat": "47.39352",
        "lon": "0.686197"
    },
    "TTR:AC-JHDV-1T": {
        "name": "Jou\u00c3\u00a9 H. de Ville",
        "lat": "47.35144995",
        "lon": "0.66277958"
    },
    "TTR:AC-JJAU-1T": {
        "name": "Jean Jaur\u00c3\u00a8s",
        "lat": "47.38931146",
        "lon": "0.68918832"
    },
    "TTR:AC-JOCEB-1": {
        "name": "Jou\u00c3\u00a9 Centre",
        "lat": "47.35104028",
        "lon": "0.66307044"
    },
    "TTR:AC-JOCUB-1": {
        "name": "Joliot Curie",
        "lat": "47.34649964",
        "lon": "0.73504113"
    },
    "TTR:AC-JOGAB-1": {
        "name": "Jou\u00c3\u00a9 Gare",
        "lat": "47.35418465",
        "lon": "0.6671027"
    },
    "TTR:AC-JOLIB-1": {
        "name": "Jolivet",
        "lat": "47.38177703",
        "lon": "0.70605863"
    },
    "TTR:AC-JONQB-1": {
        "name": "Jonquilles",
        "lat": "47.34916763",
        "lon": "0.68613776"
    },
    "TTR:AC-JOULB-1": {
        "name": "Joule",
        "lat": "47.3384123",
        "lon": "0.70616507"
    },
    "TTR:AC-JUMEB-1": {
        "name": "Jumeaux",
        "lat": "47.35358782",
        "lon": "0.69199864"
    },
    "TTR:AC-JUROB-1": {
        "name": "Jules Romains",
        "lat": "47.35448677",
        "lon": "0.72129702"
    },
    "TTR:AC-JUSTB-1": {
        "name": "Justices",
        "lat": "47.39702468",
        "lon": "0.74073222"
    },
    "TTR:AC-KATRB-1": {
        "name": "Katrineholm",
        "lat": "47.42636103",
        "lon": "0.65414339"
    },
    "TTR:AC-KLEBB-2": {
        "name": "Kl\u00c3\u00a9ber",
        "lat": "47.357052",
        "lon": "0.67219"
    },
    "TTR:AC-KRUSB-1": {
        "name": "Kruse",
        "lat": "47.46907021",
        "lon": "0.70257719"
    },
    "TTR:AC-LABDB-1": {
        "name": "La Borde",
        "lat": "47.40778498",
        "lon": "0.71484534"
    },
    "TTR:AC-LABIB-1": {
        "name": "La Bise",
        "lat": "47.37607319",
        "lon": "0.57834909"
    },
    "TTR:AC-LABOB-1": {
        "name": "Laboratoire",
        "lat": "47.43926638",
        "lon": "0.71043961"
    },
    "TTR:AC-LABSB-1": {
        "name": "La Boissi\u00c3\u00a8re",
        "lat": "47.34148482",
        "lon": "0.5344025"
    },
    "TTR:AC-LACB-1": {
        "name": "Lac",
        "lat": "47.36712611",
        "lon": "0.6981632"
    },
    "TTR:AC-LACHB-1": {
        "name": "Lachenal",
        "lat": "47.35253998",
        "lon": "0.68665575"
    },
    "TTR:AC-LACUB-1": {
        "name": "La Coudri\u00c3\u00a8re",
        "lat": "47.44820894",
        "lon": "0.72845638"
    },
    "TTR:AC-LADIB-2": {
        "name": "La Diablerie",
        "lat": "47.473816",
        "lon": "0.74939"
    },
    "TTR:AC-LAFNB-1A": {
        "name": "De la Fontaine",
        "lat": "47.35389086",
        "lon": "0.66047876"
    },
    "TTR:AC-LAFOB-1": {
        "name": "La Forge",
        "lat": "47.40464159",
        "lon": "0.61678075"
    },
    "TTR:AC-LAGRB-1Z": {
        "name": "La grange",
        "lat": "47.35556999",
        "lon": "0.66708585"
    },
    "TTR:AC-LAHAB-1": {
        "name": "La Haye",
        "lat": "47.32974213",
        "lon": "0.61519596"
    },
    "TTR:AC-LAMAB-1": {
        "name": "La Madeleine",
        "lat": "47.39481879",
        "lon": "0.71859173"
    },
    "TTR:AC-LAMEB-1": {
        "name": "La M\u00c3\u00a9rille",
        "lat": "47.35690134",
        "lon": "0.51055131"
    },
    "TTR:AC-LAMRB-1": {
        "name": "Lamartine",
        "lat": "47.39243067",
        "lon": "0.67264965"
    },
    "TTR:AC-LANDB-1": {
        "name": "Lande",
        "lat": "47.41862071",
        "lon": "0.66450185"
    },
    "TTR:AC-LANEB-1": {
        "name": "Langevin",
        "lat": "47.37459362",
        "lon": "0.70388082"
    },
    "TTR:AC-LANGB-1": {
        "name": "Langennerie",
        "lat": "47.49082601",
        "lon": "0.69759559"
    },
    "TTR:AC-LAPAB-2": {
        "name": "La Parenth\u00c3\u00a8se",
        "lat": "47.33774846",
        "lon": "0.61268776"
    },
    "TTR:AC-LAPIB-1": {
        "name": "La Plaine",
        "lat": "47.40011103",
        "lon": "0.63959992"
    },
    "TTR:AC-LAPLB-1": {
        "name": "La Pl\u00c3\u00a9iade",
        "lat": "47.38615278",
        "lon": "0.65351695"
    },
    "TTR:AC-LAPQB-1": {
        "name": "La Pasqueraie",
        "lat": "47.34751233",
        "lon": "0.62430026"
    },
    "TTR:AC-LAPRB-1": {
        "name": "La Pr\u00c3\u00a9vauderie",
        "lat": "47.45060941",
        "lon": "0.70262602"
    },
    "TTR:AC-LARAB-1": {
        "name": "La Rabini\u00c3\u00a8re",
        "lat": "47.37681334",
        "lon": "0.60714737"
    },
    "TTR:AC-LASLB-1A": {
        "name": "La Riche Soleil",
        "lat": "47.37748197",
        "lon": "0.65430702"
    },
    "TTR:AC-LATAB-1": {
        "name": "La Taillerie",
        "lat": "47.34682518",
        "lon": "0.61498938"
    },
    "TTR:AC-LATEB-1": {
        "name": "La Tesserie",
        "lat": "47.40692949",
        "lon": "0.74524654"
    },
    "TTR:AC-LAVAB-1": {
        "name": "La Planche",
        "lat": "47.42749686",
        "lon": "0.7551327"
    },
    "TTR:AC-LAVLB-1": {
        "name": "La Vall\u00c3\u00a9e",
        "lat": "47.43722392",
        "lon": "0.7480151"
    },
    "TTR:AC-LAVOB-1": {
        "name": "Lavoisier",
        "lat": "47.34696876",
        "lon": "0.66025921"
    },
    "TTR:AC-LCDPB-1": {
        "name": "Le Clos du Parc",
        "lat": "47.416478",
        "lon": "0.849251"
    },
    "TTR:AC-LCHAB-1": {
        "name": "La Chappe",
        "lat": "47.37471144",
        "lon": "0.5291213"
    },
    "TTR:AC-LEAUB-1": {
        "name": "Les Aubuis",
        "lat": "47.40314331",
        "lon": "0.62678142"
    },
    "TTR:AC-LEBAB-1": {
        "name": "Les Batonneries",
        "lat": "47.41013774",
        "lon": "0.77136601"
    },
    "TTR:AC-LEBBB-1": {
        "name": "B\u00c3\u00a9veni\u00c3\u00a8res",
        "lat": "47.46058323",
        "lon": "0.70555705"
    },
    "TTR:AC-LEBBE-2": {
        "name": "Les Bergeons",
        "lat": "47.36523329",
        "lon": "0.54216886"
    },
    "TTR:AC-LEBIB-1": {
        "name": "Les Bidaudi\u00c3\u00a8res",
        "lat": "47.4119184",
        "lon": "0.83029269"
    },
    "TTR:AC-LECAB-1": {
        "name": "Les Claies",
        "lat": "47.35044774",
        "lon": "0.7336253"
    },
    "TTR:AC-LECBB-1": {
        "name": "Les Clouet",
        "lat": "47.41025627",
        "lon": "0.75955375"
    },
    "TTR:AC-LECCB-1": {
        "name": "Leccia",
        "lat": "47.37715133",
        "lon": "0.7130081"
    },
    "TTR:AC-LECHB-1": {
        "name": "Les Charmes",
        "lat": "47.49329774",
        "lon": "0.70061241"
    },
    "TTR:AC-LECOB-2": {
        "name": "Lecouvreur",
        "lat": "47.38810726",
        "lon": "0.77623845"
    },
    "TTR:AC-LECQB-1": {
        "name": "Le Coq",
        "lat": "47.39628326",
        "lon": "0.65968995"
    },
    "TTR:AC-LECSB-2": {
        "name": "Le Clos",
        "lat": "47.41406756",
        "lon": "0.85039147"
    },
    "TTR:AC-LECTB-1": {
        "name": "Lecotte",
        "lat": "47.43650828",
        "lon": "0.68277024"
    },
    "TTR:AC-LEECB-1": {
        "name": "Les Ecoles",
        "lat": "47.37640423",
        "lon": "0.60025969"
    },
    "TTR:AC-LEFOB-1": {
        "name": "Les Fougerolles",
        "lat": "47.39370865",
        "lon": "0.78667399"
    },
    "TTR:AC-LEGGB-1": {
        "name": "Les Graviers",
        "lat": "47.368514",
        "lon": "0.762444"
    },
    "TTR:AC-LEGRB-2": {
        "name": "Les Granges",
        "lat": "47.34184944",
        "lon": "0.73773525"
    },
    "TTR:AC-LEGUB-1": {
        "name": "Les Guessi\u00c3\u00a8res",
        "lat": "47.46706705",
        "lon": "0.702161"
    },
    "TTR:AC-LELAB-1": {
        "name": "Lavoir",
        "lat": "47.43940224",
        "lon": "0.63842845"
    },
    "TTR:AC-LELOB-1": {
        "name": "Les Locquets",
        "lat": "47.44148502",
        "lon": "0.75170732"
    },
    "TTR:AC-LEMAB-1": {
        "name": "Le Marais",
        "lat": "47.44502911",
        "lon": "0.69928262"
    },
    "TTR:AC-LEMOB-1": {
        "name": "Les Montils",
        "lat": "47.36816995",
        "lon": "0.5763448"
    },
    "TTR:AC-LEMUB-1": {
        "name": "Les Muses",
        "lat": "47.38918295",
        "lon": "0.58431621"
    },
    "TTR:AC-LENIB-1": {
        "name": "L\u00c3\u00a9nine",
        "lat": "47.39357287",
        "lon": "0.73834461"
    },
    "TTR:AC-LENOB-1": {
        "name": "Les Nouies",
        "lat": "47.36657848",
        "lon": "0.56815999"
    },
    "TTR:AC-LEONB-1": {
        "name": "L\u00c3\u00a9onie Bonnet",
        "lat": "47.33418",
        "lon": "0.692848"
    },
    "TTR:AC-LEPAB-1": {
        "name": "Les Patis",
        "lat": "47.41040465",
        "lon": "0.78115244"
    },
    "TTR:AC-LEPBB-1": {
        "name": "Pr\u00c3\u00a8s de Ballan",
        "lat": "47.34525147",
        "lon": "0.61263084"
    },
    "TTR:AC-LEPCB-2": {
        "name": "Les Planches",
        "lat": "47.38611766",
        "lon": "0.56324643"
    },
    "TTR:AC-LEPIB-1": {
        "name": "Les Pins",
        "lat": "47.35887566",
        "lon": "0.66422834"
    },
    "TTR:AC-LERNB-1": {
        "name": "Les Ronci\u00c3\u00a8res",
        "lat": "47.40506825",
        "lon": "0.60677449"
    },
    "TTR:AC-LEROB-1": {
        "name": "Les Rochettes",
        "lat": "47.4025204",
        "lon": "0.72118069"
    },
    "TTR:AC-LESAB-1": {
        "name": "Sablonni\u00c3\u00a8re",
        "lat": "47.44255903",
        "lon": "0.7493281"
    },
    "TTR:AC-LESCB-1": {
        "name": "L'Escale",
        "lat": "47.42035977",
        "lon": "0.65536676"
    },
    "TTR:AC-LESCHB-1": {
        "name": "Les Chazard",
        "lat": "47.32274123",
        "lon": "0.66289849"
    },
    "TTR:AC-LESUB-1": {
        "name": "Le Saug\u00c3\u00a9",
        "lat": "47.38332149",
        "lon": "0.63464961"
    },
    "TTR:AC-LEVEB-1": {
        "name": "Le Verger",
        "lat": "47.343742",
        "lon": "0.628353"
    },
    "TTR:AC-LIGNB-1": {
        "name": "Ligner",
        "lat": "47.38340492",
        "lon": "0.66504913"
    },
    "TTR:AC-LILAB-1": {
        "name": "Lilas",
        "lat": "47.38709196",
        "lon": "0.55171444"
    },
    "TTR:AC-LIODB-1": {
        "name": "Liodi\u00c3\u00a8re",
        "lat": "47.31859508",
        "lon": "0.66114959"
    },
    "TTR:AC-LIVIB-2": {
        "name": "Livi\u00c3\u00a8re",
        "lat": "47.407097",
        "lon": "0.647674"
    },
    "TTR:AC-LOMIB-1": {
        "name": "Louise Michel",
        "lat": "47.38902066",
        "lon": "0.77925879"
    },
    "TTR:AC-LPAGB-1": {
        "name": "LP Agricole",
        "lat": "47.33935104",
        "lon": "0.72756546"
    },
    "TTR:AC-LPCLB-1": {
        "name": "LP Clouet",
        "lat": "47.42738108",
        "lon": "0.6906767"
    },
    "TTR:AC-LPEIB-1": {
        "name": "LP Eiffel",
        "lat": "47.42210547",
        "lon": "0.67595238"
    },
    "TTR:AC-LPNAB-1A": {
        "name": "Lyc\u00c3\u00a9e Nadaud",
        "lat": "47.39401692",
        "lon": "0.74053071"
    },
    "TTR:AC-LUCEB-1": {
        "name": "Luynes Centre",
        "lat": "47.38583295",
        "lon": "0.55292239"
    },
    "TTR:AC-LURCB-1": {
        "name": "Lur\u00c3\u00a7at",
        "lat": "47.41122376",
        "lon": "0.70601974"
    },
    "TTR:AC-LUXEB-1": {
        "name": "Luxembourg",
        "lat": "47.4244066",
        "lon": "0.69726455"
    },
    "TTR:AC-LVCAB-1": {
        "name": "La Vieille Carte",
        "lat": "47.33484516",
        "lon": "0.62620199"
    },
    "TTR:AC-LYCHB-1": {
        "name": "Lyc\u00c3\u00a9e Choiseul",
        "lat": "47.43437748",
        "lon": "0.68539547"
    },
    "TTR:AC-LYJM-1T": {
        "name": "Lyc\u00c3\u00a9e J. Monnet",
        "lat": "47.33808945",
        "lon": "0.65785107"
    },
    "TTR:AC-LYPLB-2": {
        "name": "Lyc\u00c3\u00a9e Courier",
        "lat": "47.395683",
        "lon": "0.695405"
    },
    "TTR:AC-LYVA-1T": {
        "name": "Vaucanson",
        "lat": "47.42343798",
        "lon": "0.70959672"
    },
    "TTR:AC-LYVAB-1": {
        "name": "Lyc\u00c3\u00a9e Vaucanson",
        "lat": "47.42262848",
        "lon": "0.70577699"
    },
    "TTR:AC-MABAB-1": {
        "name": "Maryse Basti\u00c3\u00a9",
        "lat": "47.37966327",
        "lon": "0.67074297"
    },
    "TTR:AC-MABEB-1": {
        "name": "Berthenay Mairie",
        "lat": "47.36359472",
        "lon": "0.52651816"
    },
    "TTR:AC-MABLB-1": {
        "name": "Maisons Blanches",
        "lat": "47.39528172",
        "lon": "0.65577292"
    },
    "TTR:AC-MACBB-1": {
        "name": "Marceau",
        "lat": "47.393569",
        "lon": "0.685188"
    },
    "TTR:AC-MACHB-1": {
        "name": "Chambray Mairie",
        "lat": "47.33769518",
        "lon": "0.71210328"
    },
    "TTR:AC-MADAB-1": {
        "name": "Maison d'Ardoise",
        "lat": "47.40652906",
        "lon": "0.59619093"
    },
    "TTR:AC-MAGRB-1": {
        "name": "March\u00c3\u00a9 de Gros",
        "lat": "47.37922578",
        "lon": "0.73596624"
    },
    "TTR:AC-MAILB-1": {
        "name": "Mailloux",
        "lat": "47.40790636",
        "lon": "0.67520175"
    },
    "TTR:AC-MAINB-1": {
        "name": "Maine",
        "lat": "47.42591719",
        "lon": "0.68202494"
    },
    "TTR:AC-MAJUB-1": {
        "name": "Mar\u00c3\u00a9chal Juin",
        "lat": "47.41814308",
        "lon": "0.70415119"
    },
    "TTR:AC-MAMEB-1": {
        "name": "MAME",
        "lat": "47.39218575",
        "lon": "0.66876201"
    },
    "TTR:AC-MANBB-1": {
        "name": "Manoir",
        "lat": "47.45303484",
        "lon": "0.64471906"
    },
    "TTR:AC-MANEB-1": {
        "name": "Manet",
        "lat": "47.412022",
        "lon": "0.64773"
    },
    "TTR:AC-MANUB-1": {
        "name": "Maison Neuve",
        "lat": "47.44027136",
        "lon": "0.63267187"
    },
    "TTR:AC-MARBB-1": {
        "name": "Marbelli\u00c3\u00a8re",
        "lat": "47.35759442",
        "lon": "0.66397718"
    },
    "TTR:AC-MAREB-1": {
        "name": "Mareuil",
        "lat": "47.39021871",
        "lon": "0.59272183"
    },
    "TTR:AC-MARIB-1": {
        "name": "Martigny",
        "lat": "47.38875887",
        "lon": "0.62206226"
    },
    "TTR:AC-MARMB-1": {
        "name": "Marmoutier",
        "lat": "47.40175671",
        "lon": "0.71675133"
    },
    "TTR:AC-MARN-1T": {
        "name": "Marne",
        "lat": "47.42371638",
        "lon": "0.69744485"
    },
    "TTR:AC-MAROB-1": {
        "name": "Maisons Rouges",
        "lat": "47.40480107",
        "lon": "0.60154837"
    },
    "TTR:AC-MARYB-1": {
        "name": "Martyrs",
        "lat": "47.35113233",
        "lon": "0.66632437"
    },
    "TTR:AC-MATEB-1": {
        "name": "Marteau",
        "lat": "47.39644841",
        "lon": "0.73159366"
    },
    "TTR:AC-MAURB-2": {
        "name": "Mauri\u00c3\u00a8re",
        "lat": "47.37054626",
        "lon": "0.50685277"
    },
    "TTR:AC-MAYEB-1": {
        "name": "Mayer",
        "lat": "47.41863652",
        "lon": "0.69451244"
    },
    "TTR:AC-MELIB-1": {
        "name": "M\u00c3\u00a9li\u00c3\u00a8s",
        "lat": "47.42634806",
        "lon": "0.70860639"
    },
    "TTR:AC-MENAB-2": {
        "name": "M\u00c3\u00a9nardi\u00c3\u00a8re",
        "lat": "47.41895303",
        "lon": "0.67257752"
    },
    "TTR:AC-MERMB-1": {
        "name": "Mermoz",
        "lat": "47.38128517",
        "lon": "0.70180832"
    },
    "TTR:AC-MESAB-2": {
        "name": "M\u00c3\u00a9sangerie",
        "lat": "47.40601",
        "lon": "0.676242"
    },
    "TTR:AC-MESLB-1": {
        "name": "Mesliers",
        "lat": "47.33116238",
        "lon": "0.70884792"
    },
    "TTR:AC-METAB-1": {
        "name": "M\u00c3\u00a9tairies",
        "lat": "47.33769467",
        "lon": "0.5487461"
    },
    "TTR:AC-MFRRB-1": {
        "name": "MFR Rougemont",
        "lat": "47.406792",
        "lon": "0.720111"
    },
    "TTR:AC-MICHB-1": {
        "name": "Michelin",
        "lat": "47.36762895",
        "lon": "0.6822958"
    },
    "TTR:AC-MIDYB-1": {
        "name": "Midy",
        "lat": "47.35573532",
        "lon": "0.75038718"
    },
    "TTR:AC-MIGNB-2": {
        "name": "Mignonnerie",
        "lat": "47.400565",
        "lon": "0.656852"
    },
    "TTR:AC-MILLB-1": {
        "name": "Milleti\u00c3\u00a8re",
        "lat": "47.43632089",
        "lon": "0.69870148"
    },
    "TTR:AC-MIRAB-1": {
        "name": "Mirabeau",
        "lat": "47.39217067",
        "lon": "0.69983183"
    },
    "TTR:AC-MIREB-1": {
        "name": "Mir\u00c3\u00a9",
        "lat": "47.32963158",
        "lon": "0.59103428"
    },
    "TTR:AC-MNTSB-1": {
        "name": "Montsoudun",
        "lat": "47.40862437",
        "lon": "0.71118845"
    },
    "TTR:AC-MOMAB-1": {
        "name": "Moulin Maillet",
        "lat": "47.44845193",
        "lon": "0.65127074"
    },
    "TTR:AC-MOMIB-2": {
        "name": "Moulin Milon",
        "lat": "47.43498956",
        "lon": "0.64183099"
    },
    "TTR:AC-MONAB-1": {
        "name": "Montaigne",
        "lat": "47.41826619",
        "lon": "0.6561751"
    },
    "TTR:AC-MONC-1T": {
        "name": "Monconseil",
        "lat": "47.42116463",
        "lon": "0.7002276"
    },
    "TTR:AC-MONJB-1": {
        "name": "Montjoie",
        "lat": "47.4050917",
        "lon": "0.6696704"
    },
    "TTR:AC-MONRB-1": {
        "name": "Montreuil Bellay",
        "lat": "47.35132396",
        "lon": "0.68089462"
    },
    "TTR:AC-MONTB-1": {
        "name": "Montjoyeux",
        "lat": "47.36130988",
        "lon": "0.70742538"
    },
    "TTR:AC-MORAB-1": {
        "name": "Moulin Ragot",
        "lat": "47.36945441",
        "lon": "0.51006882"
    },
    "TTR:AC-MORIB-1": {
        "name": "Morier",
        "lat": "47.35125321",
        "lon": "0.67283422"
    },
    "TTR:AC-MOUCB-1": {
        "name": "Mouchotte",
        "lat": "47.43772687",
        "lon": "0.70844448"
    },
    "TTR:AC-MOUTB-1": {
        "name": "Moulin Tan",
        "lat": "47.38997584",
        "lon": "0.52481485"
    },
    "TTR:AC-MOZAB-1": {
        "name": "Mozart",
        "lat": "47.36585083",
        "lon": "0.70851833"
    },
    "TTR:AC-MUGUB-2": {
        "name": "Muguet",
        "lat": "47.39556716",
        "lon": "0.55577702"
    },
    "TTR:AC-MURB-2": {
        "name": "M\u00c3\u00bbrier",
        "lat": "47.42490198",
        "lon": "0.66210411"
    },
    "TTR:AC-NARBB-1": {
        "name": "Narbonne",
        "lat": "47.32694241",
        "lon": "0.64863387"
    },
    "TTR:AC-NATI-1T": {
        "name": "Nationale",
        "lat": "47.39329246",
        "lon": "0.68759468"
    },
    "TTR:AC-NAURB-2": {
        "name": "Naurod",
        "lat": "47.40416161",
        "lon": "0.59432007"
    },
    "TTR:AC-NDOEB-1": {
        "name": "ND d'O\u00c3\u00a9 Centre",
        "lat": "47.45689224",
        "lon": "0.70795166"
    },
    "TTR:AC-NECRB-1": {
        "name": "N\u00c3\u00a9cropole Esvres",
        "lat": "47.321625",
        "lon": "0.770851"
    },
    "TTR:AC-NIDLB-1": {
        "name": "Ninon de Lenclos",
        "lat": "47.39630009",
        "lon": "0.77866202"
    },
    "TTR:AC-NOATB-1": {
        "name": "Nouvel Atrium",
        "lat": "47.36842488",
        "lon": "0.72721864"
    },
    "TTR:AC-NOBEB-1": {
        "name": "Nobel",
        "lat": "47.42614378",
        "lon": "0.70113537"
    },
    "TTR:AC-NOBOB-1": {
        "name": "Nouveau Bois",
        "lat": "47.35076374",
        "lon": "0.73695197"
    },
    "TTR:AC-OESIB-1": {
        "name": "O\u00c3\u00a9sia",
        "lat": "47.44956457",
        "lon": "0.69999212"
    },
    "TTR:AC-OISEB-1A": {
        "name": "Oiselet",
        "lat": "47.3621555",
        "lon": "0.73835845"
    },
    "TTR:AC-ORANB-1": {
        "name": "Orangerie",
        "lat": "47.36264066",
        "lon": "0.75203579"
    },
    "TTR:AC-ORATB-1": {
        "name": "Oratoire",
        "lat": "47.41340244",
        "lon": "0.696569"
    },
    "TTR:AC-ORMEB-1": {
        "name": "Ormes",
        "lat": "47.35895634",
        "lon": "0.65490412"
    },
    "TTR:AC-OTVIB-1A": {
        "name": "Villandry Centre",
        "lat": "47.34070989",
        "lon": "0.51082703"
    },
    "TTR:AC-OUCHB-1": {
        "name": "L'Oucherie",
        "lat": "47.33669173",
        "lon": "0.55897133"
    },
    "TTR:AC-OUDMB-1": {
        "name": "L'Ouche du Mont",
        "lat": "47.41197459",
        "lon": "0.81396262"
    },
    "TTR:AC-PABEB-1": {
        "name": "Paul Bert",
        "lat": "47.40208034",
        "lon": "0.69312719"
    },
    "TTR:AC-PADOB-1": {
        "name": "Paul Doumer",
        "lat": "47.36858176",
        "lon": "0.73073659"
    },
    "TTR:AC-PAFOB-1": {
        "name": "Paul Fort",
        "lat": "47.35017807",
        "lon": "0.6360504"
    },
    "TTR:AC-PAGRB-1": {
        "name": "Parc Grandmont",
        "lat": "47.35074317",
        "lon": "0.70331283"
    },
    "TTR:AC-PAINB-1": {
        "name": "Painguetterie",
        "lat": "47.472417",
        "lon": "0.679771"
    },
    "TTR:AC-PAMEB-1": {
        "name": "Par\u00c3\u00a7ay Centre",
        "lat": "47.44212772",
        "lon": "0.74477903"
    },
    "TTR:AC-PAMIB-1": {
        "name": "Parc Mirabeau",
        "lat": "47.394859",
        "lon": "0.698252"
    },
    "TTR:AC-PANEB-1": {
        "name": "Pablo Neruda",
        "lat": "47.39777364",
        "lon": "0.75005132"
    },
    "TTR:AC-PANOB-1": {
        "name": "Parc Nord",
        "lat": "47.36350654",
        "lon": "0.6998766"
    },
    "TTR:AC-PAPOB-1": {
        "name": "Papoterie",
        "lat": "47.33925409",
        "lon": "0.73483489"
    },
    "TTR:AC-PARAB-1": {
        "name": "Parc Rabi\u00c3\u00a8re",
        "lat": "47.34726717",
        "lon": "0.66533328"
    },
    "TTR:AC-PARDB-1": {
        "name": "Paradis",
        "lat": "47.34421028",
        "lon": "0.55290964"
    },
    "TTR:AC-PASNB-1": {
        "name": "Pas Notre Dame",
        "lat": "47.41881182",
        "lon": "0.69862958"
    },
    "TTR:AC-PASP-1T": {
        "name": "Palais des Sports",
        "lat": "47.3838613",
        "lon": "0.69629808"
    },
    "TTR:AC-PASSB-1": {
        "name": "Passerelle",
        "lat": "47.40613359",
        "lon": "0.7029815"
    },
    "TTR:AC-PASTB-1": {
        "name": "Pasteur",
        "lat": "47.39026553",
        "lon": "0.5474745"
    },
    "TTR:AC-PASUB-1": {
        "name": "Parc Sud",
        "lat": "47.35050434",
        "lon": "0.70042084"
    },
    "TTR:AC-PATAB-1": {
        "name": "Patalisse",
        "lat": "47.35578643",
        "lon": "0.68907103"
    },
    "TTR:AC-PAVIB-1": {
        "name": "Les Pavillons",
        "lat": "47.37966448",
        "lon": "0.61794346"
    },
    "TTR:AC-PBROB-1": {
        "name": "Petites Brosses",
        "lat": "47.44461",
        "lon": "0.680543"
    },
    "TTR:AC-PEARB-1": {
        "name": "Petite Arche",
        "lat": "47.42726657",
        "lon": "0.69718986"
    },
    "TTR:AC-PEBOB-1": {
        "name": "Petit Bois",
        "lat": "47.346301",
        "lon": "0.58015029"
    },
    "TTR:AC-PEGIB-1": {
        "name": "Petite Gironde",
        "lat": "47.43092588",
        "lon": "0.67305234"
    },
    "TTR:AC-PEMAB-1": {
        "name": "Petite Madelaine",
        "lat": "47.32564576",
        "lon": "0.70811622"
    },
    "TTR:AC-PEMOB-1": {
        "name": "Petit Moron",
        "lat": "47.33140378",
        "lon": "0.65471296"
    },
    "TTR:AC-PENEB-1": {
        "name": "Perce Neige",
        "lat": "47.418156",
        "lon": "0.845347"
    },
    "TTR:AC-PEPLB-1": {
        "name": "Peupliers",
        "lat": "47.3832348",
        "lon": "0.70288781"
    },
    "TTR:AC-PEREB-1": {
        "name": "Perriers",
        "lat": "47.34936047",
        "lon": "0.6971595"
    },
    "TTR:AC-PERIB-2": {
        "name": "P\u00c3\u00a9ri",
        "lat": "47.3895219",
        "lon": "0.71234015"
    },
    "TTR:AC-PERRB-1": {
        "name": "Perrin",
        "lat": "47.3418895",
        "lon": "0.72378272"
    },
    "TTR:AC-PERSB-1": {
        "name": "Perri\u00c3\u00a8res",
        "lat": "47.43590939",
        "lon": "0.74859794"
    },
    "TTR:AC-PETIB-2": {
        "name": "Petite Boucherie",
        "lat": "47.396778",
        "lon": "0.697147"
    },
    "TTR:AC-PETTB-1": {
        "name": "Petit Pr\u00c3\u00a9",
        "lat": "47.39415",
        "lon": "0.696419"
    },
    "TTR:AC-PEUBB-2": {
        "name": "Peu Boulin",
        "lat": "47.41294372",
        "lon": "0.75804283"
    },
    "TTR:AC-PEVEB-1": {
        "name": "Petit Versailles",
        "lat": "47.40602574",
        "lon": "0.73777263"
    },
    "TTR:AC-PHLBB-1": {
        "name": "Philippe le Bon",
        "lat": "47.34601635",
        "lon": "0.63938652"
    },
    "TTR:AC-PICAB-1": {
        "name": "Picardie",
        "lat": "47.42605204",
        "lon": "0.6795018"
    },
    "TTR:AC-PICHB-1": {
        "name": "Pichoti\u00c3\u00a8re",
        "lat": "47.38293521",
        "lon": "0.73031783"
    },
    "TTR:AC-PICOB-1": {
        "name": "Pierre Couverte",
        "lat": "47.40950182",
        "lon": "0.69178518"
    },
    "TTR:AC-PINAB-1": {
        "name": "Pinauderie",
        "lat": "47.42490848",
        "lon": "0.67253747"
    },
    "TTR:AC-PINTB-1": {
        "name": "Pinterie",
        "lat": "47.3631632",
        "lon": "0.74031455"
    },
    "TTR:AC-PIPLB-1": {
        "name": "Pierres Plates",
        "lat": "47.35713879",
        "lon": "0.73342437"
    },
    "TTR:AC-PLACB-1": {
        "name": "Placiers",
        "lat": "47.35959113",
        "lon": "0.75732998"
    },
    "TTR:AC-PLANB-2": {
        "name": "Plantin",
        "lat": "47.3907442",
        "lon": "0.70521485"
    },
    "TTR:AC-PLATB-2": {
        "name": "Platanes",
        "lat": "47.362446",
        "lon": "0.654358"
    },
    "TTR:AC-PLESB-1": {
        "name": "Plessis",
        "lat": "47.38514374",
        "lon": "0.66023879"
    },
    "TTR:AC-PLIEB-1A": {
        "name": "Libert\u00c3\u00a9",
        "lat": "47.37980489",
        "lon": "0.69385304"
    },
    "TTR:AC-PLROB-1": {
        "name": "Place Rousseau",
        "lat": "47.40407372",
        "lon": "0.71067779"
    },
    "TTR:AC-POBRB-1": {
        "name": "Pont de Bresme",
        "lat": "47.37063765",
        "lon": "0.51720683"
    },
    "TTR:AC-PODFB-1": {
        "name": "Pot de Fer",
        "lat": "47.41581616",
        "lon": "0.65721994"
    },
    "TTR:AC-PODL-1T": {
        "name": "Porte De Loire",
        "lat": "47.39598485",
        "lon": "0.68649119"
    },
    "TTR:AC-PODMB-1": {
        "name": "Pont du Milieu",
        "lat": "47.38646506",
        "lon": "0.70673671"
    },
    "TTR:AC-PODVB-1": {
        "name": "Port Valli\u00c3\u00a8res",
        "lat": "47.38831093",
        "lon": "0.6094906"
    },
    "TTR:AC-POLYB-1": {
        "name": "Polytech",
        "lat": "47.36448417",
        "lon": "0.68384993"
    },
    "TTR:AC-POMIB-1": {
        "name": "Pompiers",
        "lat": "47.37419141",
        "lon": "0.69834361"
    },
    "TTR:AC-POMMB-2": {
        "name": "Pommiers",
        "lat": "47.361565",
        "lon": "0.65763"
    },
    "TTR:AC-POMOB-1": {
        "name": "Pont de la Motte",
        "lat": "47.39316858",
        "lon": "0.64659131"
    },
    "TTR:AC-POMPB-1": {
        "name": "Pompidou",
        "lat": "47.37509908",
        "lon": "0.7155076"
    },
    "TTR:AC-PONAB-1": {
        "name": "Pont Napol\u00c3\u00a9on",
        "lat": "47.39909964",
        "lon": "0.67342217"
    },
    "TTR:AC-POORB-1": {
        "name": "Portail d'Ormeau",
        "lat": "47.41051828",
        "lon": "0.67790367"
    },
    "TTR:AC-PORTAB-1": {
        "name": "Portalis",
        "lat": "47.36967036",
        "lon": "0.68600695"
    },
    "TTR:AC-PORTB-1": {
        "name": "Portillon",
        "lat": "47.40034561",
        "lon": "0.67811401"
    },
    "TTR:AC-POURB-1": {
        "name": "Pourtal\u00c3\u00a8s",
        "lat": "47.36622413",
        "lon": "0.75026084"
    },
    "TTR:AC-POVIB-1": {
        "name": "Sant\u00c3\u00a9 Vinci",
        "lat": "47.33557865",
        "lon": "0.69096504"
    },
    "TTR:AC-POVO-1T": {
        "name": "Pont Volant",
        "lat": "47.36262148",
        "lon": "0.67379081"
    },
    "TTR:AC-PRCOB-1": {
        "name": "Parc Expo",
        "lat": "47.37666695",
        "lon": "0.71889048"
    },
    "TTR:AC-PRENB-1": {
        "name": "Preney",
        "lat": "47.4217489",
        "lon": "0.65004681"
    },
    "TTR:AC-PREUB-1": {
        "name": "Preuilly",
        "lat": "47.39266463",
        "lon": "0.67015147"
    },
    "TTR:AC-PRIEB-1A": {
        "name": "Priestley",
        "lat": "47.43694565",
        "lon": "0.7040792"
    },
    "TTR:AC-PRIMB-1A": {
        "name": "Primev\u00c3\u00a8res",
        "lat": "47.47033992",
        "lon": "0.69883631"
    },
    "TTR:AC-PRSAB-1": {
        "name": "P+R Sagerie",
        "lat": "47.34780083",
        "lon": "0.70456779"
    },
    "TTR:AC-PTCLB-1": {
        "name": "Pont Clouet",
        "lat": "47.399586",
        "lon": "0.523998"
    },
    "TTR:AC-QUBOB-1": {
        "name": "Quatre Bornes",
        "lat": "47.35210403",
        "lon": "0.6870002"
    },
    "TTR:AC-QUCHB-1": {
        "name": "Quatre Chemins",
        "lat": "47.35281134",
        "lon": "0.73343517"
    },
    "TTR:AC-QUDLB-1": {
        "name": "Quai de la Loire",
        "lat": "47.40876101",
        "lon": "0.75876303"
    },
    "TTR:AC-QUMAB-1": {
        "name": "Quai Malraux",
        "lat": "47.3975478",
        "lon": "0.69770576"
    },
    "TTR:AC-QUMEB-1": {
        "name": "Merluche",
        "lat": "47.4099859",
        "lon": "0.48669166"
    },
    "TTR:AC-RABEB-1": {
        "name": "Rabelais",
        "lat": "47.38478813",
        "lon": "0.67675624"
    },
    "TTR:AC-RABI-1T": {
        "name": "Rabi\u00c3\u00a8re",
        "lat": "47.34467786",
        "lon": "0.66235647"
    },
    "TTR:AC-RAGBB-1": {
        "name": "Ragonni\u00c3\u00a8re",
        "lat": "47.45159909",
        "lon": "0.64497687"
    },
    "TTR:AC-RAPHB-1": {
        "name": "Rapha\u00c3\u00abl",
        "lat": "47.36048197",
        "lon": "0.65339949"
    },
    "TTR:AC-RASPB-1": {
        "name": "Raspail",
        "lat": "47.37868137",
        "lon": "0.71048459"
    },
    "TTR:AC-RECOB-1": {
        "name": "R\u00c3\u00a9collets",
        "lat": "47.392177",
        "lon": "0.677189"
    },
    "TTR:AC-REMBB-1": {
        "name": "Rembrandt",
        "lat": "47.413784",
        "lon": "0.648974"
    },
    "TTR:AC-REMPB-1": {
        "name": "Rempart",
        "lat": "47.39176485",
        "lon": "0.7010367"
    },
    "TTR:AC-RENAB-1": {
        "name": "Renan",
        "lat": "47.39361348",
        "lon": "0.7026097"
    },
    "TTR:AC-RENOB-1": {
        "name": "Renoir",
        "lat": "47.35648017",
        "lon": "0.74370527"
    },
    "TTR:AC-REPB-1T": {
        "name": "R\u00c3\u00a9publique",
        "lat": "47.3551456",
        "lon": "0.66449083"
    },
    "TTR:AC-RIBEB-1": {
        "name": "Ribellerie",
        "lat": "47.44377626",
        "lon": "0.66387172"
    },
    "TTR:AC-RICEB-1": {
        "name": "La Riche Centre",
        "lat": "47.38849617",
        "lon": "0.65875562"
    },
    "TTR:AC-RICHB-1": {
        "name": "Richemont",
        "lat": "47.36722425",
        "lon": "0.7211234"
    },
    "TTR:AC-RICOB-1": {
        "name": "Ricoti\u00c3\u00a8re",
        "lat": "47.33062686",
        "lon": "0.74925372"
    },
    "TTR:AC-ROCAB-1": {
        "name": "Rocailles",
        "lat": "47.43864978",
        "lon": "0.62947478"
    },
    "TTR:AC-ROCEB-1": {
        "name": "Roche",
        "lat": "47.3515684",
        "lon": "0.63392754"
    },
    "TTR:AC-ROCHB-2": {
        "name": "Rochebise",
        "lat": "47.40049587",
        "lon": "0.59585773"
    },
    "TTR:AC-RODLB-1A": {
        "name": "Rouget de Lisle",
        "lat": "47.39086332",
        "lon": "0.6737717"
    },
    "TTR:AC-ROMAB-1": {
        "name": "Romarins",
        "lat": "47.39188269",
        "lon": "0.72288072"
    },
    "TTR:AC-RONSB-1": {
        "name": "Coll\u00c3\u00a8ge Ronsard",
        "lat": "47.4188586",
        "lon": "0.70385091"
    },
    "TTR:AC-ROSNB-1": {
        "name": "Rosnay",
        "lat": "47.35297236",
        "lon": "0.71658992"
    },
    "TTR:AC-ROTI-1T": {
        "name": "Roti\u00c3\u00a8re",
        "lat": "47.34820915",
        "lon": "0.66327833"
    },
    "TTR:AC-ROTOB-1": {
        "name": "Rotonde",
        "lat": "47.38173511",
        "lon": "0.70500019"
    },
    "TTR:AC-ROUSB-1": {
        "name": "Rousseau",
        "lat": "47.45596564",
        "lon": "0.71180029"
    },
    "TTR:AC-ROUXB-1": {
        "name": "Roux",
        "lat": "47.41351119",
        "lon": "0.67142189"
    },
    "TTR:AC-ROYEB-1": {
        "name": "Royer",
        "lat": "47.37971301",
        "lon": "0.69245179"
    },
    "TTR:AC-RTSGB-1": {
        "name": "Route St Genouph",
        "lat": "47.38522467",
        "lon": "0.64355754"
    },
    "TTR:AC-RUAUB-1": {
        "name": "Les Ruaux",
        "lat": "47.37847177",
        "lon": "0.53196111"
    },
    "TTR:AC-RUCHB-1": {
        "name": "Rue Chaude",
        "lat": "47.34314222",
        "lon": "0.54203759"
    },
    "TTR:AC-RUNEB-1": {
        "name": "Rue Neuve",
        "lat": "47.41773925",
        "lon": "0.84697537"
    },
    "TTR:AC-RUNOB-1": {
        "name": "Rue Noire",
        "lat": "47.35698985",
        "lon": "0.52131328"
    },
    "TTR:AC-SAAAB-1B": {
        "name": "Ste Agathe",
        "lat": "47.4702087",
        "lon": "0.69592127"
    },
    "TTR:AC-SAANB-1": {
        "name": "Ste Anne",
        "lat": "47.39057165",
        "lon": "0.66539427"
    },
    "TTR:AC-SAAPB-1": {
        "name": "Sant\u00c3\u00a9 NCT+",
        "lat": "47.4318989",
        "lon": "0.66689627"
    },
    "TTR:AC-SABOB-1": {
        "name": "Saboterie",
        "lat": "47.35808414",
        "lon": "0.74323371"
    },
    "TTR:AC-SADUB-1": {
        "name": "Saule Durand",
        "lat": "47.336012",
        "lon": "0.540609"
    },
    "TTR:AC-SAELB-1": {
        "name": "St Eloi",
        "lat": "47.38831691",
        "lon": "0.67626225"
    },
    "TTR:AC-SAFRB-1": {
        "name": "St Fran\u00c3\u00a7ois",
        "lat": "47.38142678",
        "lon": "0.66825054"
    },
    "TTR:AC-SAGAB-1A": {
        "name": "St Gatien",
        "lat": "47.335886",
        "lon": "0.65264"
    },
    "TTR:AC-SAGEB-1": {
        "name": "St Georges",
        "lat": "47.40510136",
        "lon": "0.73338735"
    },
    "TTR:AC-SAGPB-1": {
        "name": "Grottes",
        "lat": "47.34588539",
        "lon": "0.53156659"
    },
    "TTR:AC-SAGRB-1": {
        "name": "Sagerie",
        "lat": "47.36101022",
        "lon": "0.71426707"
    },
    "TTR:AC-SAJOB-1": {
        "name": "St Joseph",
        "lat": "47.40309009",
        "lon": "0.70535404"
    },
    "TTR:AC-SALEB-1": {
        "name": "Salengro",
        "lat": "47.38633296",
        "lon": "0.69041959"
    },
    "TTR:AC-SALNB-1": {
        "name": "Saulnier",
        "lat": "47.44889311",
        "lon": "0.72072985"
    },
    "TTR:AC-SAPOB-1A": {
        "name": "Savonni\u00c3\u00a8res",
        "lat": "47.34818449",
        "lon": "0.54749459"
    },
    "TTR:AC-SARAB-2": {
        "name": "Ste Radegonde",
        "lat": "47.40263816",
        "lon": "0.71096008"
    },
    "TTR:AC-SAROB-1": {
        "name": "St Roch",
        "lat": "47.40918421",
        "lon": "0.76275296"
    },
    "TTR:AC-SAVEB-1": {
        "name": "St Venant",
        "lat": "47.38458985",
        "lon": "0.55516308"
    },
    "TTR:AC-SAVGB-1": {
        "name": "Savonni\u00c3\u00a8res Gare",
        "lat": "47.360531",
        "lon": "0.544154"
    },
    "TTR:AC-SAVIB-1": {
        "name": "St Vincent",
        "lat": "47.4105236",
        "lon": "0.79745064"
    },
    "TTR:AC-SCEGB-1": {
        "name": "St Cyr Eglise",
        "lat": "47.39744922",
        "lon": "0.66690136"
    },
    "TTR:AC-SCHWB-2": {
        "name": "Schweitzer",
        "lat": "47.38900062",
        "lon": "0.70598358"
    },
    "TTR:AC-SDISB-1": {
        "name": "SDIS 37",
        "lat": "47.31435452",
        "lon": "0.60423444"
    },
    "TTR:AC-SEMAB-1": {
        "name": "Semard",
        "lat": "47.3871709",
        "lon": "0.71086173"
    },
    "TTR:AC-SEVEB-1": {
        "name": "S\u00c3\u00a9verine",
        "lat": "47.37594704",
        "lon": "0.70542882"
    },
    "TTR:AC-SEVIB-1": {
        "name": "S\u00c3\u00a9vign\u00c3\u00a9",
        "lat": "47.3978578",
        "lon": "0.77408492"
    },
    "TTR:AC-SIBOB-1": {
        "name": "Siboti\u00c3\u00a8re",
        "lat": "47.41228241",
        "lon": "0.65922659"
    },
    "TTR:AC-SISIB-1": {
        "name": "Simone Signoret",
        "lat": "47.38637708",
        "lon": "0.76473727"
    },
    "TTR:AC-SLPOB-1": {
        "name": "Salle Polyvalente",
        "lat": "47.37400619",
        "lon": "0.59575495"
    },
    "TTR:AC-SMAUB-1": {
        "name": "St Maurice",
        "lat": "47.36466735",
        "lon": "0.60117122"
    },
    "TTR:AC-SORBB-1": {
        "name": "Sorbiers",
        "lat": "47.35773926",
        "lon": "0.63689527"
    },
    "TTR:AC-STADB-1": {
        "name": "Stade",
        "lat": "47.39246069",
        "lon": "0.73729151"
    },
    "TTR:AC-STALB-1": {
        "name": "Stalingrad",
        "lat": "47.38787071",
        "lon": "0.72035248"
    },
    "TTR:AC-STAUB-2A": {
        "name": "St Augustin",
        "lat": "47.395733",
        "lon": "0.699378"
    },
    "TTR:AC-STBAB-1": {
        "name": "St Barth\u00c3\u00a9lemy",
        "lat": "47.41233718",
        "lon": "0.70012737"
    },
    "TTR:AC-STCCB-2": {
        "name": "Croix Chidaine",
        "lat": "47.407246",
        "lon": "0.649167"
    },
    "TTR:AC-STCYB-1": {
        "name": "St Cyr Mairie",
        "lat": "47.40011021",
        "lon": "0.6667518"
    },
    "TTR:AC-STENB-1": {
        "name": "Stendhal",
        "lat": "47.3688156",
        "lon": "0.71077195"
    },
    "TTR:AC-STEXB-1": {
        "name": "St Exup\u00c3\u00a9ry",
        "lat": "47.40702969",
        "lon": "0.66617731"
    },
    "TTR:AC-STGEB-1": {
        "name": "St Genouph Mairie",
        "lat": "47.37808282",
        "lon": "0.59880099"
    },
    "TTR:AC-STJAB-1": {
        "name": "St Jean",
        "lat": "47.36051674",
        "lon": "0.70477486"
    },
    "TTR:AC-STLEB-1": {
        "name": "St L\u00c3\u00a9ger",
        "lat": "47.34518698",
        "lon": "0.65280941"
    },
    "TTR:AC-STLIB-1": {
        "name": "St Libert",
        "lat": "47.40953935",
        "lon": "0.71355943"
    },
    "TTR:AC-STMAB-2": {
        "name": "St Martin",
        "lat": "47.393337",
        "lon": "0.683407"
    },
    "TTR:AC-STMIB-1": {
        "name": "St Michel",
        "lat": "47.3665547",
        "lon": "0.73833266"
    },
    "TTR:AC-STPA-2T": {
        "name": "Saint Paul",
        "lat": "47.38140188",
        "lon": "0.69734068"
    },
    "TTR:AC-STPCB-1": {
        "name": "St Pierre Centre",
        "lat": "47.3907176",
        "lon": "0.71933881"
    },
    "TTR:AC-STPGB-2": {
        "name": "St Pierre Gare",
        "lat": "47.3867204",
        "lon": "0.72302362"
    },
    "TTR:AC-STRAB-1A": {
        "name": "Strasbourg",
        "lat": "47.37896599",
        "lon": "0.67982496"
    },
    "TTR:AC-STSAB-1B": {
        "name": "St Sauveur",
        "lat": "47.37358944",
        "lon": "0.68134284"
    },
    "TTR:AC-STURB-1": {
        "name": "Ste Ursule",
        "lat": "47.393791",
        "lon": "0.690574"
    },
    "TTR:AC-STVAB-1": {
        "name": "Stade Varenne",
        "lat": "47.38527386",
        "lon": "0.55985651"
    },
    "TTR:AC-SUBLB-1": {
        "name": "Sublainerie",
        "lat": "47.32666135",
        "lon": "0.59932275"
    },
    "TTR:AC-SUENB-2": {
        "name": "Su\u00c3\u00a8de",
        "lat": "47.43539907",
        "lon": "0.69269655"
    },
    "TTR:AC-TAMAB-1": {
        "name": "Tamaris",
        "lat": "47.33607883",
        "lon": "0.71360832"
    },
    "TTR:AC-TAVAB-1": {
        "name": "Tavant",
        "lat": "47.43495103",
        "lon": "0.6795699"
    },
    "TTR:AC-TEFOB-1": {
        "name": "Terres Fortes",
        "lat": "47.37541015",
        "lon": "0.59398725"
    },
    "TTR:AC-TEROB-1": {
        "name": "Terres Rouges",
        "lat": "47.37119896",
        "lon": "0.5128567"
    },
    "TTR:AC-TERTB-2": {
        "name": "Tertreaux",
        "lat": "47.44149374",
        "lon": "0.69994821"
    },
    "TTR:AC-THALB-1": {
        "name": "Thal\u00c3\u00a8s",
        "lat": "47.43045706",
        "lon": "0.69060824"
    },
    "TTR:AC-THORB-2": {
        "name": "Thorez",
        "lat": "47.38969972",
        "lon": "0.71796534"
    },
    "TTR:AC-TILLB-1": {
        "name": "Tilleuls",
        "lat": "47.34063025",
        "lon": "0.72187502"
    },
    "TTR:AC-TODAB-2": {
        "name": "Tour d'Auvergne",
        "lat": "47.38462314",
        "lon": "0.7069122"
    },
    "TTR:AC-TONEB-1": {
        "name": "Tonnell\u00c3\u00a9",
        "lat": "47.38416126",
        "lon": "0.66820477"
    },
    "TTR:AC-TORRB-1": {
        "name": "Torricelli",
        "lat": "47.42833453",
        "lon": "0.70081625"
    },
    "TTR:AC-TOUCB-1": {
        "name": "Les Touches",
        "lat": "47.35654373",
        "lon": "0.59286861"
    },
    "TTR:AC-TOUEB-2": {
        "name": "Tourmaline",
        "lat": "47.360836",
        "lon": "0.643471"
    },
    "TTR:AC-TOUVB-1": {
        "name": "Touvoie",
        "lat": "47.41989351",
        "lon": "0.75374102"
    },
    "TTR:AC-TRAEB-1": {
        "name": "Tranch\u00c3\u00a9e",
        "lat": "47.40958449",
        "lon": "0.67992074"
    },
    "TTR:AC-TREMB-1": {
        "name": "Tremblay",
        "lat": "47.41646309",
        "lon": "0.69668695"
    },
    "TTR:AC-TRIAB-1": {
        "name": "Trianon",
        "lat": "47.40664122",
        "lon": "0.69118427"
    },
    "TTR:AC-TROBB-1": {
        "name": "Trobriand",
        "lat": "47.36066328",
        "lon": "0.68972823"
    },
    "TTR:AC-TROEB-1": {
        "name": "Tro\u00c3\u00a8nes",
        "lat": "47.35915651",
        "lon": "0.71552834"
    },
    "TTR:AC-TRRI-1T": {
        "name": "Trois Rivi\u00c3\u00a8res",
        "lat": "47.41619725",
        "lon": "0.68369184"
    },
    "TTR:AC-TRTOB-1": {
        "name": "Trois Tonneaux",
        "lat": "47.402634",
        "lon": "0.661054"
    },
    "TTR:AC-TULIB-1": {
        "name": "Tulipes",
        "lat": "47.3415062",
        "lon": "0.60765556"
    },
    "TTR:AC-URSEB-1": {
        "name": "Ursulines",
        "lat": "47.39531846",
        "lon": "0.69974849"
    },
    "TTR:AC-VACHB-1": {
        "name": "Vall\u00c3\u00a9e Chartier",
        "lat": "47.41188712",
        "lon": "0.82238117"
    },
    "TTR:AC-VADCB-1": {
        "name": "Vall\u00c3\u00a9e du Cher",
        "lat": "47.378243",
        "lon": "0.727016"
    },
    "TTR:AC-VAFLB-1": {
        "name": "Val Fleuri",
        "lat": "47.39489288",
        "lon": "0.72131893"
    },
    "TTR:AC-VALA-1T": {
        "name": "Suzanne Valadon",
        "lat": "47.37302089",
        "lon": "0.68941309"
    },
    "TTR:AC-VALCB-1": {
        "name": "Val Choisille",
        "lat": "47.4356857",
        "lon": "0.64021764"
    },
    "TTR:AC-VALLB-1": {
        "name": "Valli\u00c3\u00a8res",
        "lat": "47.38918103",
        "lon": "0.60690542"
    },
    "TTR:AC-VANNB-1": {
        "name": "Vanneaux",
        "lat": "47.34824177",
        "lon": "0.72186987"
    },
    "TTR:AC-VARENB-1": {
        "name": "Varennes",
        "lat": "47.37488659",
        "lon": "0.58969965"
    },
    "TTR:AC-VARRB-1": {
        "name": "Varoir",
        "lat": "47.470844",
        "lon": "0.675494"
    },
    "TTR:AC-VAUDB-1": {
        "name": "Vaudasni\u00c3\u00a8re",
        "lat": "47.43009243",
        "lon": "0.75282829"
    },
    "TTR:AC-VAUGB-1": {
        "name": "Vaugareau",
        "lat": "47.39228356",
        "lon": "0.53835725"
    },
    "TTR:AC-VAUVB-1": {
        "name": "Vauvert",
        "lat": "47.40964182",
        "lon": "0.76663591"
    },
    "TTR:AC-VAVAB-1": {
        "name": "Vall\u00c3\u00a9e Vaugareau",
        "lat": "47.39588062",
        "lon": "0.53476431"
    },
    "TTR:AC-VAVIB-1": {
        "name": "Vall\u00c3\u00a9e Violette",
        "lat": "47.34364272",
        "lon": "0.67667188"
    },
    "TTR:AC-VEBOB-1": {
        "name": "Vieux Bourg",
        "lat": "47.38497398",
        "lon": "0.52658771"
    },
    "TTR:AC-VECEB-1": {
        "name": "Vernou Centre",
        "lat": "47.42104429",
        "lon": "0.84513326"
    },
    "TTR:AC-VELPB-1": {
        "name": "Velpeau",
        "lat": "47.38703609",
        "lon": "0.70320859"
    },
    "TTR:AC-VENCB-1": {
        "name": "Ven\u00c3\u00a7ay",
        "lat": "47.35971711",
        "lon": "0.74486656"
    },
    "TTR:AC-VEROB-1": {
        "name": "Verdun",
        "lat": "47.37344228",
        "lon": "0.69563825"
    },
    "TTR:AC-VIALB-1": {
        "name": "Viala",
        "lat": "47.39099332",
        "lon": "0.72943926"
    },
    "TTR:AC-VICTB-1": {
        "name": "Victoire",
        "lat": "47.39432354",
        "lon": "0.67790375"
    },
    "TTR:AC-VIECB-1": {
        "name": "Vieux Calvaire",
        "lat": "47.45223799",
        "lon": "0.65177441"
    },
    "TTR:AC-VIHUB-1": {
        "name": "Victor Hugo",
        "lat": "47.40439374",
        "lon": "0.66806218"
    },
    "TTR:AC-VINOB-1": {
        "name": "Vieux Noyer",
        "lat": "47.41865479",
        "lon": "0.71174429"
    },
    "TTR:AC-VIOLB-1": {
        "name": "Coll\u00c3\u00a8ge Violette",
        "lat": "47.34473177",
        "lon": "0.67920609"
    },
    "TTR:AC-VOCEB-1": {
        "name": "Vouvray Centre",
        "lat": "47.41084678",
        "lon": "0.80010525"
    },
    "TTR:AC-VOISB-1": {
        "name": "Voisin",
        "lat": "47.42926454",
        "lon": "0.66327967"
    },
    "TTR:AC-VOLTB-1": {
        "name": "Voltaire",
        "lat": "47.39730471",
        "lon": "0.68945821"
    },
    "TTR:AC-WAGNB-1": {
        "name": "Wagner",
        "lat": "47.37618553",
        "lon": "0.71086529"
    },
    "TTR:AC-WALVB-2": {
        "name": "Walvein",
        "lat": "47.390066",
        "lon": "0.669968"
    },
    "TTR:AC-WEDEB-1": {
        "name": "Wedells",
        "lat": "47.40608992",
        "lon": "0.71202109"
    },
    "TTR:AC-WIBRB-1": {
        "name": "Willy Brandt",
        "lat": "47.43989247",
        "lon": "0.69424211"
    },
    "TTR:AC-YVAUB-2": {
        "name": "ZI Yvaudi\u00c3\u00a8res",
        "lat": "47.385017",
        "lon": "0.738649"
    },
    "TTR:AC-ZAOEB-1": {
        "name": "ZA d'O\u00c3\u00a9",
        "lat": "47.43713122",
        "lon": "0.69366418"
    },
    "TTR:AC-ZAPAB-1": {
        "name": "ZA Papillon",
        "lat": "47.44504036",
        "lon": "0.71735871"
    },
    "TTR:ADLUB-1A": {
        "name": "Arche du Lude",
        "lat": "47.34706004",
        "lon": "0.6510691"
    },
    "TTR:ADLUB-2A": {
        "name": "Arche du Lude",
        "lat": "47.3471135",
        "lon": "0.65164989"
    },
    "TTR:AEROB-1": {
        "name": "A\u00c3\u00a9rogare",
        "lat": "47.42796607",
        "lon": "0.70530877"
    },
    "TTR:AEROB-2": {
        "name": "A\u00c3\u00a9rogare",
        "lat": "47.42795182",
        "lon": "0.70557436"
    },
    "TTR:AFORB-1": {
        "name": "CFA Aforproba",
        "lat": "47.39670843",
        "lon": "0.73737615"
    },
    "TTR:AFORB-2": {
        "name": "CFA Aforproba",
        "lat": "47.39665762",
        "lon": "0.73630441"
    },
    "TTR:AGCAB-1": {
        "name": "Agrocampus",
        "lat": "47.400038",
        "lon": "0.63585212"
    },
    "TTR:AGCAB-2": {
        "name": "Agrocampus",
        "lat": "47.39977471",
        "lon": "0.63507869"
    },
    "TTR:AHOTB-1": {
        "name": "CHU Trousseau",
        "lat": "47.347817",
        "lon": "0.712418"
    },
    "TTR:AHOTB-1A": {
        "name": "CHU Trousseau",
        "lat": "47.347817",
        "lon": "0.712418"
    },
    "TTR:AIGHB-1": {
        "name": "Aitre Gauthiers",
        "lat": "47.41260147",
        "lon": "0.83994863"
    },
    "TTR:AIGHB-2": {
        "name": "Aitre Gauthiers",
        "lat": "47.41280841",
        "lon": "0.84064528"
    },
    "TTR:AIGRB-1": {
        "name": "L'Aigrefin",
        "lat": "47.32414659",
        "lon": "0.59186193"
    },
    "TTR:AIMEB-1": {
        "name": "Aim\u00c3\u00a9e",
        "lat": "47.35974393",
        "lon": "0.69657577"
    },
    "TTR:AJONB-1": {
        "name": "Ajoncs",
        "lat": "47.352631",
        "lon": "0.63276829"
    },
    "TTR:AJONB-2": {
        "name": "Ajoncs",
        "lat": "47.35276648",
        "lon": "0.63280368"
    },
    "TTR:ALAEB-1": {
        "name": "Ali\u00c3\u00a9nor",
        "lat": "47.38950301",
        "lon": "0.78234479"
    },
    "TTR:ALAEB-2": {
        "name": "Ali\u00c3\u00a9nor",
        "lat": "47.38955929",
        "lon": "0.78251538"
    },
    "TTR:ALLEB-1": {
        "name": "Allende",
        "lat": "47.408421",
        "lon": "0.650018"
    },
    "TTR:ALOUB-1": {
        "name": "Alouette",
        "lat": "47.35956935",
        "lon": "0.69822302"
    },
    "TTR:ALOUB-2": {
        "name": "Alouette",
        "lat": "47.35969283",
        "lon": "0.69868267"
    },
    "TTR:ALSAB-1": {
        "name": "Alsace",
        "lat": "47.36452284",
        "lon": "0.73583777"
    },
    "TTR:ALSAB-2": {
        "name": "Alsace",
        "lat": "47.36449513",
        "lon": "0.73578563"
    },
    "TTR:AMPEB-1": {
        "name": "Amp\u00c3\u00a8re",
        "lat": "47.42331841",
        "lon": "0.66957777"
    },
    "TTR:AMPEB-2": {
        "name": "Amp\u00c3\u00a8re",
        "lat": "47.42331574",
        "lon": "0.66939225"
    },
    "TTR:ANDBB-1": {
        "name": "Anne de Bretagne",
        "lat": "47.38666265",
        "lon": "0.76920653"
    },
    "TTR:ANDBB-2": {
        "name": "Anne de Bretagne",
        "lat": "47.38667326",
        "lon": "0.76932544"
    },
    "TTR:ANDFB-1": {
        "name": "Anne de France",
        "lat": "47.39793106",
        "lon": "0.7775146"
    },
    "TTR:ANDFB-2": {
        "name": "Anne de France",
        "lat": "47.39795036",
        "lon": "0.77694428"
    },
    "TTR:ANGUB-1": {
        "name": "Anguille",
        "lat": "47.3883949",
        "lon": "0.7269739"
    },
    "TTR:ANGUB-2": {
        "name": "Anguille",
        "lat": "47.38817099",
        "lon": "0.7270469"
    },